id,atm_group,address,address_rus,lat,long,target,religious_buildings_100,food_drink_100,education_100,healthcare_100,transportation_100,entertainment_100,public_amenities_100,cash_intensive_shops_100,personal_services_100,large_retail_100,markets_vendors_100,tourism_100,financial_services_100,religious_buildings_250,food_drink_250,education_250,healthcare_250,transportation_250,entertainment_250,public_amenities_250,cash_intensive_shops_250,personal_services_250,large_retail_250,markets_vendors_250,tourism_250,financial_services_250,religious_buildings_500,food_drink_500,education_500,healthcare_500,transportation_500,entertainment_500,public_amenities_500,cash_intensive_shops_500,personal_services_500,large_retail_500,markets_vendors_500,tourism_500,financial_services_500,religious_buildings_1000,food_drink_1000,education_1000,healthcare_1000,transportation_1000,entertainment_1000,public_amenities_1000,cash_intensive_shops_1000,personal_services_1000,large_retail_1000,markets_vendors_1000,tourism_1000,financial_services_1000,highway_type,highway_distance,parking_count,parking_types,parking_distance,metro_count,metro_distance,bus_tram_count,bus_distance,city,region,is_urban
4510.0,496.5,PER. BAZARNY 4            SPASSK-DALNY,"Базарный переулок, 4, Спасск-Дальний, городской округ Спасск-Дальний, Приморский край, Дальневосточный федеральный округ, Россия",44.597339,132.816714,0.0391906415946258,0,0,0,1,0,0,0,0,0,1,0,0,0,0,0,2,2,0,0,2,2,0,2,0,1,1,0,0,5,2,0,0,2,2,0,3,0,1,7,1,0,8,4,1,0,2,5,0,4,0,1,7,unknown,0.0,3,"[""street_side"", ""parking""]",30.85415645569873,0,0.0,4,207.2243421815241,Спасск-Дальний,Приморский край,1
1591.0,1942.0,16A BEREJKOVSK NAB        MOSCOW      ,"Бережковская набережная, 16А, Москва, Москва, Центральный федеральный округ, Россия",55.737836,37.562604,0.0800340870031678,0,1,0,2,0,0,0,1,0,0,0,0,0,0,1,0,2,0,0,0,1,0,0,0,0,0,0,8,1,3,0,0,0,3,1,0,0,0,0,2,137,12,40,12,3,12,29,21,8,4,5,30,footway,144.15234127838497,0,empty,0.0,0,0.0,9,136.90340445367835,Москва,Москва,1
440.0,1942.0,113 MIRA AV.              TOGLIATTI   ,"улица Мира, 113, Тольятти, городской округ Тольятти, Самарская область, Приволжский федеральный округ, Россия",53.51069,49.444378,-0.0829561645280578,0,0,0,0,0,0,0,0,0,1,0,0,0,0,1,3,2,0,0,2,1,0,3,0,0,0,0,2,9,7,0,0,3,3,2,6,0,0,0,3,6,12,11,0,1,7,9,3,10,0,0,9,service,86.78528281633422,0,empty,0.0,0,0.0,10,89.18914561180873,городской округ Тольятти,Самарская область,1
556.0,1942.0,133A MOZHAYSKOE H/W.      MOSCOW      ,"Можайское шоссе, 133А, Одинцово, Московская область, Россия",55.684412,37.296119,0.0615173036596213,0,1,0,2,0,0,0,0,0,1,0,0,1,0,4,1,7,0,0,2,2,4,3,0,0,5,1,11,10,13,0,0,2,7,12,8,1,0,12,1,26,15,27,0,1,3,20,19,18,1,0,18,steps,30.509139093741464,2,"[""surface""]",51.23576139922513,0,0.0,10,51.49773282484416,Одинцово,Московская область,1
568.0,1942.0,63A IZMAYLOVSKIY AV.      MOSCOW      ,"Измайловский бульвар, 63А, Москва, Центральный федеральный округ, Россия",55.785296,37.852078,0.0082759964032928,0,1,0,3,0,0,0,3,3,2,0,0,0,0,8,2,8,0,0,1,11,9,2,0,0,0,0,14,2,11,0,0,2,18,15,5,0,0,0,0,20,2,11,1,0,2,22,15,6,4,0,2,service,12.278302898860904,8,"[""multi-storey"", ""surface"", ""street_side""]",19.368039281938927,0,0.0,5,249.7176635952756,Балашиха,Московская область,1
705.0,1942.0,45 YANA RAYNISA ST.       MOSCOW      ,"бульвар Яна Райниса, 45к1, Москва, Россия",57.79584,28.330187,0.0977262747361658,0,0,0,0,0,0,0,0,0,0,0,0,0,0,1,0,0,0,0,0,1,0,0,1,0,0,0,2,0,1,1,0,0,1,0,1,1,0,1,1,4,0,1,2,0,0,3,0,2,1,1,1,service,19.94605535109093,0,empty,0.0,0,0.0,4,31.04489969117185,Псков,Псковская область,1
706.0,1942.0,45 YANA RAYNISA ST.       MOSCOW      ,"бульвар Яна Райниса, 45к1, Москва, Россия",57.79584,28.330187,0.0673419998357932,0,0,0,0,0,0,0,0,0,0,0,0,0,0,1,0,0,0,0,0,1,0,0,1,0,0,0,2,0,1,1,0,0,1,0,1,1,0,1,1,4,0,1,2,0,0,3,0,2,1,1,1,service,19.94605535109093,0,empty,0.0,0,0.0,4,31.04489969117185,Псков,Псковская область,1
707.0,1942.0,45 YANA RAYNISA ST.       MOSCOW      ,"бульвар Яна Райниса, 45к1, Москва, Россия",57.79584,28.330187,0.1622313862404432,0,0,0,0,0,0,0,0,0,0,0,0,0,0,1,0,0,0,0,0,1,0,0,1,0,0,0,2,0,1,1,0,0,1,0,1,1,0,1,1,4,0,1,2,0,0,3,0,2,1,1,1,service,19.94605535109093,0,empty,0.0,0,0.0,4,31.04489969117185,Псков,Псковская область,1
708.0,1942.0,45 YANA RAYNISA ST.       MOSCOW      ,"бульвар Яна Райниса, 45к1, Москва, Россия",57.79584,28.330187,0.1281522422059661,0,0,0,0,0,0,0,0,0,0,0,0,0,0,1,0,0,0,0,0,1,0,0,1,0,0,0,2,0,1,1,0,0,1,0,1,1,0,1,1,4,0,1,2,0,0,3,0,2,1,1,1,service,19.94605535109093,0,empty,0.0,0,0.0,4,31.04489969117185,Псков,Псковская область,1
1307.0,1942.0,107 UNIVERSITETSKIY       VOLGOGRAD   ,"Университетский проспект, 107, Волгоград, городской округ Волгоград, Волгоградская область, Южный федеральный округ, Россия",48.636558,44.436073,0.0444785071210849,0,24,0,0,0,0,0,1,0,1,1,0,2,0,29,0,0,0,0,0,1,0,2,1,0,2,0,29,0,0,0,0,0,1,0,3,1,0,2,0,32,1,3,1,0,0,1,1,4,1,0,2,footway,97.93655783385567,1,"[""surface""]",89.47571548149932,0,0.0,9,118.23498671354916,Волгоград,Волгоградская область,1
1338.0,1942.0,28 STROITELEY BLVD        KEMEROVO    ,"бульвар Строителей, 28, Кемерово, Кемеровский городской округ, Кемеровская область — Кузбасс, Сибирский федеральный округ, Россия",55.344797,86.167516,0.0332655384837692,0,0,0,0,0,0,1,2,0,2,0,0,1,0,3,1,1,0,0,3,2,1,3,0,0,2,0,4,11,1,0,0,6,3,2,3,0,0,3,4,10,38,10,1,0,10,13,3,16,1,1,11,service,54.658229363765486,0,empty,0.0,0,0.0,7,127.04704717428304,Кемерово,Кемеровская область,1
2491.0,3185.5,PRESNENSKAJA              MOSKVA      ,"Москва, Пресненская набережная, Москва, Центральный федеральный округ, Россия",55.74635,37.539473,0.0060060357476447,0,9,0,0,1,0,0,1,1,0,0,0,1,0,43,0,3,5,1,0,5,9,0,0,2,9,2,129,3,17,9,4,5,22,26,9,8,6,32,4,192,10,49,17,6,18,39,57,12,14,11,55,service,19.022859273486976,2,"[""underground""]",62.41790824956031,15,225.83081145203465,24,141.31843658164064,Москва,Москва,1
8413.0,5478.0,PL. KOMENDANTSKAYA        SANKT-PETERB,"Санкт-Петербург, Комендантская площадь, Санкт-Петербург, Северо-Западный федеральный округ, Россия",60.007443,30.260065,-0.0373994933043668,0,7,0,2,1,1,0,3,3,0,1,0,2,0,23,2,14,2,1,0,9,12,6,13,0,26,0,40,7,34,2,3,2,19,28,14,14,0,44,0,83,22,62,2,5,14,40,49,32,18,1,67,footway,13.954538120082796,2,"[""underground"", ""surface""]",58.48517627923366,4,145.54307962572832,26,139.99725544692353,Санкт-Петербург,Санкт-Петербург,1
4871.0,5478.0,UL. GOGOLYA               NOVOSIBIRSK ,"Новосибирск, улица Гоголя, городской округ Новосибирск, Новосибирская область, Сибирский федеральный округ, Россия",55.044686,82.945439,-0.0570236544500832,0,0,0,0,0,0,0,1,1,1,0,0,0,0,1,2,2,0,0,0,2,1,1,1,0,1,1,9,7,12,1,1,1,8,3,3,1,0,4,1,33,21,37,1,1,9,37,17,6,1,5,12,residential,2.1501208743526603,2,"[""parking""]",21.708154482332848,3,361.8750337902519,13,32.98423821042315,Новосибирск,Новосибирская область,1
5021.0,5478.0,"D. 91, PR-KT OBVODNYI KAN ARKHANGELSK ","проспект Обводный канал, 91, Архангельск, городской округ Архангельск, Архангельская область, Северо-Западный федеральный округ, Россия",64.548725,40.537618,-0.0691872710113302,0,1,1,0,0,0,2,0,3,1,0,0,0,0,3,4,3,0,0,3,2,6,3,2,0,1,2,14,13,18,0,0,9,8,25,15,8,0,14,10,97,33,88,0,3,26,40,110,60,29,4,63,service,40.98332606933738,12,"[""parking""]",31.820978698578003,0,0.0,6,72.85340366392113,Архангельск,Архангельская область,1
5169.0,5478.0,"D. 6, PR-KT UL'YANOVSKII  ULYANOVSK G ","Ульяновский проспект, 6, Ульяновск, городской округ Ульяновск, Ульяновская область, Приволжский федеральный округ, Россия",54.372592,48.58505,-0.010810303788851,0,1,0,1,1,0,0,4,0,3,0,0,3,0,10,3,3,1,0,0,5,0,7,0,0,7,0,24,7,15,2,3,7,10,5,13,0,0,19,0,35,18,32,4,3,13,27,14,29,0,1,26,footway,27.94897440020033,2,"[""surface""]",78.75579975799886,0,0.0,5,92.06261683703303,Ульяновск,Ульяновская область,1
5304.0,5478.0,"D. 1, UL. 50-I ARMII      BRYANSK G   ","улица 50-й Армии, 1, Брянск, городской округ Брянск, Брянская область, Центральный федеральный округ, Россия",53.342661,34.292099,-0.0461536277031474,0,1,0,0,0,0,0,0,0,0,0,0,0,0,1,0,0,0,0,0,0,0,0,0,0,1,0,2,0,1,0,0,0,0,0,0,0,0,1,2,3,4,2,0,0,0,2,0,1,0,0,1,service,34.282266809310656,1,"[""parking""]",15.465961995352444,0,0.0,7,76.56630228645272,Брянск,Брянская область,1
5391.0,5478.0,"D. 66, PR-KT PARKOVYI     PERM G      ","Парковый проспект, 66, Пермь, городской округ Пермь, Пермский край, Приволжский федеральный округ, Россия",57.996473,56.174422,-0.0544579807433907,0,0,0,1,0,0,0,0,0,1,0,0,5,0,1,1,1,0,0,1,0,1,2,0,0,5,0,3,3,4,0,0,1,2,2,5,0,0,6,0,10,11,10,0,0,6,5,2,14,1,0,9,service,54.499297650087385,3,"[""parking""]",59.90915487612176,0,0.0,9,116.655092658121,Пермь,Пермский край,1
5877.0,5478.0,"D. 47 A, UL. KOMMUNISTICH ULAN-UDE G  ","Коммунистическая улица, 47А, Улан-Удэ, городской округ Улан-Удэ, Республика Бурятия, Дальневосточный федеральный округ, Россия",51.83206,107.585625,0.0040578269800006,0,0,0,0,0,0,0,0,0,0,0,2,1,0,12,1,3,0,2,2,1,0,3,0,3,4,0,33,9,6,0,2,4,4,2,5,0,7,7,2,61,18,15,2,6,15,17,7,20,0,16,27,footway,55.352800853629645,3,"[""surface"", ""lane"", ""parking""]",28.976634341400988,0,0.0,10,131.58000150670574,Улан-Удэ,Республика Бурятия,1
5878.0,5478.0,"D. 47 A, UL. KOMMUNISTICH ULAN-UDE G  ","Коммунистическая улица, 47А, Улан-Удэ, городской округ Улан-Удэ, Республика Бурятия, Дальневосточный федеральный округ, Россия",51.83206,107.585625,0.0038234989756568,0,0,0,0,0,0,0,0,0,0,0,2,1,0,12,1,3,0,2,2,1,0,3,0,3,4,0,33,9,6,0,2,4,4,2,5,0,7,7,2,61,18,15,2,6,15,17,7,20,0,16,27,footway,55.352800853629645,3,"[""surface"", ""lane"", ""parking""]",28.976634341400988,0,0.0,10,131.58000150670574,Улан-Удэ,Республика Бурятия,1
5980.0,5478.0,"D. 47A, PR-KT KRASNOARMEI BARNAUL G   ","Красноармейский проспект, 47А, Барнаул, городской округ Барнаул, Алтайский край, Сибирский федеральный округ, Россия",53.335253,83.77541,0.0158377495503522,0,6,0,1,0,1,0,0,2,2,1,0,0,0,15,0,6,0,1,1,3,11,3,1,0,1,0,27,7,19,0,2,3,11,23,10,1,1,5,8,71,31,47,0,4,12,25,45,22,1,7,24,service,64.63505863233148,5,"[""parking""]",49.41441116876807,0,0.0,16,53.30641142167882,Барнаул,Алтайский край,1
6075.0,5478.0,"D. 47 A, UL. KOMMUNISTICH ULAN-UDE G  ","Коммунистическая улица, 47А, Улан-Удэ, городской округ Улан-Удэ, Республика Бурятия, Дальневосточный федеральный округ, Россия",51.83206,107.585625,-0.0182009258733017,0,0,0,0,0,0,0,0,0,0,0,2,1,0,12,1,3,0,2,2,1,0,3,0,3,4,0,33,9,6,0,2,4,4,2,5,0,7,7,2,61,18,15,2,6,15,17,7,20,0,16,27,footway,55.352800853629645,3,"[""surface"", ""lane"", ""parking""]",28.976634341400988,0,0.0,10,131.58000150670574,Улан-Удэ,Республика Бурятия,1
6076.0,5478.0,"D. 47 A, UL. KOMMUNISTICH ULAN-UDE G  ","Коммунистическая улица, 47А, Улан-Удэ, городской округ Улан-Удэ, Республика Бурятия, Дальневосточный федеральный округ, Россия",51.83206,107.585625,0.0222407206083888,0,0,0,0,0,0,0,0,0,0,0,2,1,0,12,1,3,0,2,2,1,0,3,0,3,4,0,33,9,6,0,2,4,4,2,5,0,7,7,2,61,18,15,2,6,15,17,7,20,0,16,27,footway,55.352800853629645,3,"[""surface"", ""lane"", ""parking""]",28.976634341400988,0,0.0,10,131.58000150670574,Улан-Удэ,Республика Бурятия,1
6404.0,5478.0,"D. 2, KORP. 2, B-R SVOBOD SURGUT G    ","бульвар Свободы, 2, Сургут, городской округ Сургут, Ханты-Мансийский автономный округ — Югра, Тюменская область, Уральский федеральный округ, Россия",61.249149,73.401477,-0.0282323257844557,0,2,1,0,0,0,1,0,1,3,0,0,5,0,7,5,1,0,0,1,2,1,5,0,0,8,0,12,6,11,0,0,3,7,3,11,0,0,13,0,46,29,51,0,0,17,44,26,31,2,2,46,service,41.45764088782598,2,"[""parking"", ""surface""]",37.94766032868058,0,0.0,10,126.97876416208966,Сургут,Ханты-Мансийский автономный округ — Югра,1
7249.0,5478.0,"D. 29V, PR-KT LENINGRADSK KEMEROVO G  ","Ленинградский проспект, 29А, Кемерово, Кемеровский городской округ, Кемеровская область — Кузбасс, Сибирский федеральный округ, Россия",55.345012,86.173175,-0.0252328435532771,0,0,3,0,0,0,0,0,0,0,0,0,0,0,0,4,0,0,0,4,0,0,0,0,0,0,0,4,9,2,1,0,6,3,1,5,1,0,1,4,11,30,8,1,0,7,9,3,14,1,1,9,service,85.92185263096052,0,empty,0.0,0,0.0,10,270.6553777616266,Кемерово,Кемеровская область,1
7262.0,5478.0,"D. 26 A, UL. TERESHKOVOI  ULAN-UDE G  ","улица Терешковой, 26А, Улан-Удэ, городской округ Улан-Удэ, Республика Бурятия, Дальневосточный федеральный округ, Россия",51.809374,107.609978,-0.0128602435724519,0,0,0,0,0,0,0,0,0,0,0,1,0,0,0,3,1,0,1,1,4,0,0,0,1,0,0,0,14,3,0,1,2,5,0,1,0,1,5,4,8,23,10,0,2,6,8,0,4,0,1,8,service,38.55548672991887,3,"[""parking""]",57.61521657394072,0,0.0,6,114.7487487125541,Улан-Удэ,Республика Бурятия,1
7303.0,5478.0,"D. 116/2, UL. KRASNOARMEI KRASNODAR G ","Красноармейская улица, 116/2, микрорайон Центральный, Краснодар, городской округ Краснодар, Краснодарский край, Южный федеральный округ, Россия",45.036566,38.976894,-0.0203199578060494,0,3,0,1,0,0,0,1,0,0,0,0,1,0,16,0,4,0,1,1,3,1,1,0,3,9,4,59,6,9,0,1,2,12,6,4,0,6,25,8,172,23,26,2,7,11,44,21,12,0,15,62,footway,19.1779359638194,3,"[""surface"", ""street_side""]",36.61246733627888,0,0.0,10,280.1604658102427,Краснодар,Краснодарский край,1
7343.0,5478.0,"D. 19/1, MKR. UBILEINYI   IRKUTSK G   ","микрорайон Юбилейный, 19/1, Иркутск, муниципальное образование Иркутск, Иркутская область, Сибирский федеральный округ, Россия",52.227534,104.304025,-0.0794202407266862,0,1,0,0,0,0,0,1,0,1,0,0,0,0,1,0,1,0,0,1,2,0,1,0,0,0,0,4,4,4,0,0,3,5,1,2,0,0,0,2,9,18,15,0,1,6,12,5,12,0,7,5,footway,64.29931856995688,1,"[""parking""]",21.15485172295981,0,0.0,12,66.53194854509658,Иркутск,Иркутская область,1
7376.0,5478.0,"D. 13B, PR-KT KOMSOMOL'SK TOMSK G     ","Комсомольский проспект, 13Б, Томск, городской округ Томск, Томская область, Сибирский федеральный округ, Россия",56.488532,84.978515,0.0221722273671796,0,11,0,0,0,1,0,0,1,2,0,0,8,0,12,0,1,0,1,0,0,1,4,0,0,9,0,12,0,1,0,1,0,1,1,4,0,0,9,3,30,16,27,2,1,1,9,22,13,14,6,19,service,69.98044978376697,2,"[""surface""]",86.09332232581119,0,0.0,1,317.41084193750027,Томск,Томская область,1
3126.0,8083.0,"2 KHUTORSKAYA, 38A.9   Moskva         ","2-я Хуторская улица, 38Ас9, Москва, Москва, Центральный федеральный округ, Россия",55.80481,37.566243,0.1821890627689258,0,2,0,0,0,0,0,0,0,0,0,0,1,3,5,0,0,0,0,1,1,1,0,0,1,2,4,16,5,11,2,0,8,6,8,5,4,3,7,4,72,19,47,3,0,25,41,60,16,16,15,17,tertiary,37.80650875811834,2,"[""street_side"", ""surface""]",48.74204747919944,0,0.0,12,145.7335724671176,Москва,Москва,1
3494.0,8083.0,"Dmitriya Donskogo b-r, Moskva         ","Москва, бульвар Дмитрия Донского, Москва, Центральный федеральный округ, Россия",55.569301,37.575989,0.1761029633099184,0,1,0,3,1,0,0,1,0,1,0,0,3,0,15,3,9,1,0,1,6,1,5,1,0,5,2,26,13,24,1,0,3,13,9,8,3,0,9,6,41,32,43,1,2,11,22,23,27,5,1,16,service,26.985907907317483,2,"[""parking""]",57.873083931933735,12,55.69175500078124,27,64.74288713958973,Москва,Москва,1
3583.0,8083.0,"PAVELETSKAYA PL.,2,2   Moskva         ","Павелецкая площадь, 2с2, Москва, Москва, Центральный федеральный округ, Россия",55.730218,37.635916,0.1168967982675488,0,8,0,1,1,0,0,1,1,0,0,0,2,2,54,0,7,4,1,2,14,10,3,3,2,23,6,102,3,26,7,3,9,35,29,6,7,8,42,15,322,15,75,16,10,22,63,106,18,11,37,90,residential,40.99464145148722,3,"[""underground"", ""parking""]",39.71278917343806,6,121.77370828226378,23,69.16958072026095,Москва,Москва,1
3890.0,8083.0,"PARTIZANA ZHELEZNYAKA, KRASNOYARSK    ","Красноярск, улица Партизана Железняка, городской округ Красноярск, Красноярский край, Сибирский федеральный округ, Россия",56.03265,92.921994,0.1201511460427547,0,2,0,0,0,0,0,0,0,1,0,0,2,2,5,0,2,0,0,0,1,2,2,0,1,2,2,14,3,6,0,1,1,3,2,6,0,5,4,4,37,12,14,1,1,3,8,4,13,0,8,15,footway,13.028306597048552,1,"[""surface""]",60.420379256612605,0,0.0,8,89.95533629334362,Красноярск,Красноярский край,1
3996.0,8083.0,"SOSNOVAY ALLEYA, 601   Moskva         ","Москва, Сосновая аллея, Москва, Центральный федеральный округ, Россия",55.819353,37.463718,0.1528305477106638,0,1,0,0,0,0,0,1,0,0,0,0,0,2,2,0,0,0,0,0,1,0,0,0,1,0,4,6,1,6,0,0,3,3,1,4,0,1,0,4,8,5,12,0,0,5,4,1,7,3,2,0,service,9.141636519224395,1,"[""surface""]",90.46173158160629,0,0.0,8,183.02014744697897,Москва,Москва,1
582.0,1942.0,101 LENINSKIY AV.         MOSCOW      ,"Ленинский проспект, 101, Москва, Москва, Центральный федеральный округ, Россия",55.666624,37.51573,0.0353192175550387,0,1,0,2,0,0,0,0,1,0,0,0,0,0,1,1,4,0,1,1,0,3,0,0,0,0,0,16,7,17,0,2,4,5,16,8,0,0,5,2,47,25,47,5,2,10,21,36,19,7,1,7,service,67.29226149317459,3,"[""parking""]",31.85857373406353,1,471.5441127089353,7,111.48307938545676,Москва,Москва,1
583.0,1942.0,64/2 LENINSKIY AV         MOSCOW      ,"Ленинский проспект, 64/2, Москва, Москва, Центральный федеральный округ, Россия",55.692475,37.551726,0.0336743118025774,0,0,0,0,1,0,1,0,0,1,1,0,2,0,2,5,6,1,0,2,1,4,2,1,0,5,0,11,13,13,2,0,3,9,10,6,1,0,8,4,68,34,49,10,4,12,28,41,11,2,2,18,footway,31.403131351167072,1,"[""surface""]",42.40745755475344,0,0.0,9,83.96466677260779,Москва,Москва,1
641.0,1942.0,18 1-KOLOBOVSKIY BSTR.    MOSCOW      ,"1-й Колобовский переулок, 18, Москва, Москва, Центральный федеральный округ, Россия",55.768142,37.619971,0.0428925287684592,0,2,0,2,0,0,1,1,3,0,0,0,3,0,28,1,10,3,1,1,2,7,3,0,1,11,20,160,4,44,5,4,5,13,67,5,1,23,29,36,546,18,143,27,37,27,57,184,16,41,75,88,service,22.71379249850833,3,"[""surface"", ""street_side""]",8.10010609969147,4,111.1838744482553,15,68.42405104542746,Москва,Москва,1
1011.0,1942.0,4 KHODYNSKIY BLVD.        MOSCOW      ,"Ходынский бульвар, 4, Москва, Москва, Центральный федеральный округ, Россия",55.790231,37.531289,0.0453231976213933,0,25,0,1,0,0,1,0,0,1,4,0,2,0,39,0,1,1,1,1,0,2,2,4,0,7,2,52,0,4,3,1,2,2,9,6,5,1,12,4,89,6,23,10,1,3,10,37,11,8,4,19,footway,82.65111154780439,0,empty,0.0,2,368.0475494927177,5,103.37666280162584,Москва,Москва,1
1303.0,1942.0,26A MIRA AV.              MYTISCHI    ,"улица Мира, 26А, Мытищи, городской округ Мытищи, Московская область, Центральный федеральный округ, Россия",55.916623,37.726736,-0.0146676824896268,0,2,0,0,0,0,0,0,0,3,0,0,1,0,6,1,0,1,0,0,1,2,5,0,0,2,0,10,8,7,1,0,3,7,5,9,0,0,5,0,30,25,26,1,0,9,26,19,17,2,0,12,secondary,47.68330558899977,0,empty,0.0,0,0.0,14,196.92563177424,Мытищи,Московская область,1
1284.0,1942.0,51 UNIVERSITETSKIY        VOLGOGRAD   ,"Университетский проспект, 51, Волгоград, городской округ Волгоград, Волгоградская область, Южный федеральный округ, Россия",48.664718,44.440753,-0.0131172693165888,0,0,0,1,0,0,0,3,0,0,0,0,1,1,0,0,1,0,0,1,5,0,0,0,0,1,1,6,4,3,0,0,1,7,0,1,0,0,1,1,15,12,6,0,1,4,24,2,6,4,0,3,footway,55.74843149081901,0,empty,0.0,0,0.0,2,58.251378753342784,Волгоград,Волгоградская область,1
1296.0,1942.0,21 AMURSKAYA STR.         OMSK        ,"Омск, 21-я Амурская улица, городской округ Омск, Омская область, Сибирский федеральный округ, Россия",55.036215,73.423054,0.028067283168925,0,0,0,0,0,0,0,0,0,0,0,0,0,0,0,0,0,0,0,0,0,0,0,0,0,0,0,0,1,1,0,0,0,0,0,1,0,0,0,0,4,8,5,0,0,3,4,0,4,0,1,2,secondary,23.391606423415634,0,empty,0.0,0,0.0,6,348.7584428876371,Омск,Омская область,1
1608.0,1942.0,116-1A GRAZHDANSKIY AV.   S.-PETERBURG,"Гражданский проспект, 116к1, Санкт-Петербург, Санкт-Петербург, Северо-Западный федеральный округ, Россия",60.034978,30.418186,0.0265171465026169,0,4,0,0,0,0,1,9,0,1,7,0,7,0,18,0,10,0,0,5,15,5,5,8,0,26,0,23,7,14,0,1,6,24,12,6,8,1,37,0,47,31,40,0,2,14,43,34,24,11,4,61,footway,1.1469918028043635,2,"[""surface"", ""street_side""]",29.97358309766564,3,15.366624352178308,18,72.77051095739513,Санкт-Петербург,Санкт-Петербург,1
2289.0,3185.5,"25B, GAGARINA ST.         ULAN-UDE    ","улица Гагарина, 25, Улан-Удэ, городской округ Улан-Удэ, Республика Бурятия, Дальневосточный федеральный округ, Россия",51.837569,107.593845,-0.0788319032744656,0,2,1,0,0,0,0,3,1,1,0,1,4,0,4,5,2,0,0,1,6,3,2,0,2,5,0,4,9,2,0,0,3,6,5,7,0,3,9,2,34,29,8,0,2,8,9,5,12,0,12,19,service,49.72523611796882,2,"[""parking""]",43.095813279910985,0,0.0,14,66.4630180159758,Улан-Удэ,Республика Бурятия,1
2558.0,3185.5,"MICHURINSKIJ PR.,D7       MOSKVA      ","Мичуринский проспект, 7, Москва, Москва, Центральный федеральный округ, Россия",55.702729,37.509703,-0.0496958561350299,0,1,0,1,0,0,0,0,0,0,0,0,8,0,10,1,9,2,0,0,2,8,0,0,0,10,0,43,5,16,3,0,1,8,18,10,0,1,19,2,72,15,46,7,1,6,18,42,15,1,2,31,footway,32.63882596212046,4,"[""surface"", ""parking""]",15.536485774487527,2,374.57619499798506,17,52.02183052720411,Москва,Москва,1
2564.0,3185.5,PRESNENSKAJA NABERE       MOSKVA      ,"Москва, Пресненская набережная, Москва, Центральный федеральный округ, Россия",55.74635,37.539473,-0.0237559711355166,0,9,0,0,1,0,0,1,1,0,0,0,1,0,43,0,3,5,1,0,5,9,0,0,2,9,2,129,3,17,9,4,5,22,26,9,8,6,32,4,192,10,49,17,6,18,39,57,12,14,11,55,service,19.022859273486976,2,"[""underground""]",62.41790824956031,15,225.83081145203465,24,141.31843658164064,Москва,Москва,1
2658.0,3185.5,UL. CSHORSA-8 V           BELGOROD    ,"улица Щорса, 8В, Белгород, муниципальное образование Белгород, Белгородская область, Центральный федеральный округ, Россия",50.584326,36.566175,-0.048848338327213,0,1,0,0,0,0,0,1,0,0,0,0,2,0,4,1,1,0,0,1,1,0,2,0,1,5,1,4,5,2,0,0,2,4,2,3,0,1,6,1,9,17,7,0,0,5,8,4,11,0,1,8,service,33.75783462691522,4,"[""parking"", ""surface""]",23.61775234441514,0,0.0,2,339.2210595976801,Белгород,Белгородская область,1
4877.0,5478.0,"D. 23, SH. KRASNOARMEISKO VYAZMA G    ","Красноармейское шоссе, 23, Вязьма, Вяземский муниципальный округ, Смоленская область, Центральный федеральный округ, Россия",55.199511,34.311862,-0.0767298069183502,0,1,0,1,0,0,0,0,0,1,0,0,0,0,2,0,3,0,0,0,0,0,1,0,0,0,0,5,0,6,1,0,0,1,1,3,1,0,0,2,7,4,13,1,0,0,5,2,9,3,1,1,service,77.33681916893073,1,"[""surface""]",38.73204819585377,0,0.0,1,250.70893243060712,Вязьма,Смоленская область,1
4916.0,5478.0,"D. 69, UL. KRASNOYARSKII  KRASNOYARSK ","проспект имени Газеты Красноярский Рабочий, 69, Красноярск, городской округ Красноярск, Красноярский край, Сибирский федеральный округ, Россия",56.006381,92.948269,-0.0012161355343601,0,1,0,2,0,0,2,1,2,2,0,0,2,0,3,4,7,0,0,2,3,2,2,1,0,6,0,4,10,10,0,0,3,5,3,4,1,0,6,1,12,31,15,0,0,5,13,5,8,1,3,13,service,7.554905877214895,3,"[""parking""]",50.2682176786163,0,0.0,14,92.68414075913296,Красноярск,Красноярский край,1
5072.0,5478.0,"D. 42, LIT. D, PR-KT 25 O GATCHINA G  ","проспект 25 Октября, 42Д, Гатчина, Гатчинский муниципальный округ, Ленинградская область, Северо-Западный федеральный округ, Россия",59.574882,30.125677,-0.0893354653748194,0,3,1,1,0,0,0,0,0,2,0,0,0,0,5,3,10,0,0,0,5,2,5,1,0,3,2,13,8,16,0,0,2,11,5,9,2,0,8,4,43,20,41,0,1,8,29,19,21,3,3,14,service,72.74248980188413,3,"[""surface"", ""underground""]",63.58319268684761,0,0.0,9,161.0489923634369,Гатчина,Ленинградская область,1
5146.0,5478.0,"D. 126/1, UL. BAIKAL'SKAY IRKUTSK G   ","Байкальская улица, 126/1, Иркутск, муниципальное образование Иркутск, Иркутская область, Сибирский федеральный округ, Россия",52.263442,104.310898,-0.0305677994757465,0,2,0,3,0,0,2,0,0,0,0,1,3,0,6,3,8,0,0,4,7,1,1,1,3,4,0,20,7,18,0,1,6,13,7,9,1,6,9,0,47,14,23,1,1,9,20,21,14,1,9,14,service,36.65282776659683,0,empty,0.0,0,0.0,8,191.89144865344755,Иркутск,Иркутская область,1
5308.0,5478.0,"D. 63, UL. KRASNOGEROISKA IZHEVSK G   ","Красногеройская улица, 63, Ижевск, городской округ Ижевск, Удмуртская Республика, Приволжский федеральный округ, Россия",56.849753,53.220411,-0.1056374103365981,0,3,0,1,0,0,0,0,1,1,0,0,1,0,11,3,2,0,1,3,1,2,2,0,0,1,8,25,9,7,0,2,4,4,5,3,0,2,4,19,93,35,41,2,9,17,25,17,27,0,6,37,service,29.533717811170888,9,"[""parking""]",20.860661015517685,0,0.0,6,256.0820344241139,городской округ Ижевск,Удмуртия,1
5380.0,5478.0,"D. 51A, PR-KT KRASNOARMEI BARNAUL G   ","Красноармейский проспект, 51А, Барнаул, городской округ Барнаул, Алтайский край, Сибирский федеральный округ, Россия",53.337065,83.773892,-0.0199654083065506,0,6,0,2,0,0,0,3,3,2,0,0,1,0,16,2,7,0,1,1,5,8,8,0,0,4,0,28,13,21,0,2,3,9,26,13,1,2,8,6,76,33,43,0,4,12,24,45,22,1,6,24,service,39.17103371706527,5,"[""surface"", ""parking"", ""street_side""]",32.71553530273098,0,0.0,10,48.144755091045255,Барнаул,Алтайский край,1
5808.0,5478.0,"D. 305, PR-KT OBUHOVSKOI  SANKT-PETERB","проспект Обуховской Обороны, 305, Санкт-Петербург, Санкт-Петербург, Северо-Западный федеральный округ, Россия",59.840917,30.483979,-0.0216109243816037,0,2,0,1,0,0,0,0,0,0,0,0,2,0,2,1,2,0,0,1,2,0,0,0,0,3,0,4,4,7,0,0,2,6,2,4,0,0,3,5,6,6,11,0,0,5,9,6,9,0,1,3,service,49.80772012491577,2,"[""surface""]",79.08382682643916,0,0.0,8,269.4378451594688,Санкт-Петербург,Санкт-Петербург,1
5908.0,5478.0,"D. 6, PL. PRIVOKZAL'NAYA  ISHIM G     ","Привокзальная площадь, 6, Ишим, городской округ Ишим, Тюменская область, Уральский федеральный округ, Россия",56.111775,69.51178,-0.080516431377996,0,3,1,0,0,0,0,0,0,0,0,0,0,0,4,1,1,0,0,1,0,0,0,0,0,0,0,6,6,2,1,0,2,0,0,1,0,0,1,1,7,9,4,1,0,3,8,1,1,0,0,3,footway,34.69483068496069,2,"[""parking""]",48.04250049676502,0,0.0,3,94.71205134811778,городской округ Ишим,Тюменская область,1
5923.0,5478.0,"D. 55, PR-KT SOVETSKOI AR NOVOKUZNETSK","проспект Советской Армии, 55, Новокузнецк, Новокузнецкий городской округ, Кемеровская область — Кузбасс, Сибирский федеральный округ, Россия",53.838013,87.164826,-0.1042953448532763,0,0,1,0,0,0,0,0,1,0,0,0,1,0,0,1,7,0,0,0,0,1,1,0,0,1,0,1,5,10,0,0,0,1,1,1,0,0,2,1,6,17,16,0,0,3,4,2,3,0,2,7,living_street,75.35919669650643,1,"[""surface""]",72.41959273418205,0,0.0,1,142.98523587790504,Новокузнецк,Кемеровская область,1
5983.0,5478.0,"D. 33, PR-KT DRUZHBY NARO ABAKAN G    ","проспект Дружбы Народов, 33, Абакан, городской округ Абакан, Республика Хакасия, Сибирский федеральный округ, Россия",53.740637,91.425849,-0.1265181892209894,0,0,1,0,0,0,0,0,0,1,0,0,0,1,1,2,0,0,0,0,0,0,1,0,0,1,1,7,6,4,0,0,0,4,2,3,0,0,2,2,28,20,9,0,2,2,14,11,15,1,2,5,service,52.938368615365206,0,empty,0.0,0,0.0,14,93.34248388216666,Абакан,Республика Хакасия,1
6424.0,5478.0,"D. 1, UL. KOMSOMOL'SKAYA  PODOLSK G   ","Комсомольская улица, 1, Подольск, городской округ Подольск, Московская область, Центральный федеральный округ, Россия",55.427882,37.550109,0.0207062512623758,0,3,0,1,0,0,0,1,0,0,1,0,0,0,4,0,2,0,1,0,1,1,3,1,0,4,0,10,2,13,0,1,2,13,3,11,2,0,10,6,64,13,36,1,5,12,45,26,23,5,1,31,service,29.501438150266008,1,"[""surface""]",45.05650889868881,0,0.0,13,61.46524242392178,Подольск,Московская область,1
6642.0,5478.0,"D. 67, UL. VLASIHINSKAYA  BARNAUL G   ","Власихинская улица, 67, Барнаул, городской округ Барнаул, Алтайский край, Сибирский федеральный округ, Россия",53.326347,83.685085,0.016595683229776,0,1,0,1,0,0,0,0,0,1,0,0,0,0,3,0,4,0,0,0,0,2,2,0,0,0,0,11,2,7,0,0,1,4,3,6,0,0,0,1,25,10,17,0,0,7,8,12,15,0,5,5,service,69.91663259611651,1,"[""surface""]",59.3954482781332,0,0.0,16,120.25603333155102,Барнаул,Алтайский край,1
6643.0,5478.0,"D. 46, B-R IZMAILOVSKII   MOSKVA G    ","Измайловский бульвар, 46, Москва, Москва, Центральный федеральный округ, Россия",55.796344,37.805841,0.0245144816708889,0,0,1,0,0,0,0,0,0,0,0,0,1,0,1,5,1,0,0,3,0,1,1,0,0,4,0,31,10,22,0,1,5,25,12,11,1,2,10,1,62,53,70,1,3,17,64,37,33,3,5,27,service,23.25448894720136,3,"[""underground"", ""surface"", ""parking""]",23.25448894720136,4,391.7310296042177,24,35.258836643137,Москва,Москва,1
6644.0,5478.0,"D. 46, B-R IZMAILOVSKII   MOSKVA G    ","Измайловский бульвар, 46, Москва, Москва, Центральный федеральный округ, Россия",55.796344,37.805841,-0.0108455294521842,0,0,1,0,0,0,0,0,0,0,0,0,1,0,1,5,1,0,0,3,0,1,1,0,0,4,0,31,10,22,0,1,5,25,12,11,1,2,10,1,62,53,70,1,3,17,64,37,33,3,5,27,service,23.25448894720136,3,"[""underground"", ""surface"", ""parking""]",23.25448894720136,4,391.7310296042177,24,35.258836643137,Москва,Москва,1
6645.0,5478.0,"D. 46, B-R IZMAILOVSKII   MOSKVA G    ","Измайловский бульвар, 46, Москва, Москва, Центральный федеральный округ, Россия",55.796344,37.805841,0.058988655060744,0,0,1,0,0,0,0,0,0,0,0,0,1,0,1,5,1,0,0,3,0,1,1,0,0,4,0,31,10,22,0,1,5,25,12,11,1,2,10,1,62,53,70,1,3,17,64,37,33,3,5,27,service,23.25448894720136,3,"[""underground"", ""surface"", ""parking""]",23.25448894720136,4,391.7310296042177,24,35.258836643137,Москва,Москва,1
6646.0,5478.0,"D. 46, B-R IZMAILOVSKII   MOSKVA G    ","Измайловский бульвар, 46, Москва, Москва, Центральный федеральный округ, Россия",55.796344,37.805841,0.0390117036498062,0,0,1,0,0,0,0,0,0,0,0,0,1,0,1,5,1,0,0,3,0,1,1,0,0,4,0,31,10,22,0,1,5,25,12,11,1,2,10,1,62,53,70,1,3,17,64,37,33,3,5,27,service,23.25448894720136,3,"[""underground"", ""surface"", ""parking""]",23.25448894720136,4,391.7310296042177,24,35.258836643137,Москва,Москва,1
6707.0,5478.0,"D. 42, UL. KOMSOMOL'SKAYA KIROV G     ","Комсомольская улица, 42, Ленинский район, Киров, муниципальное образование Киров, Кировская область, Приволжский федеральный округ, Россия",58.578611,49.651584,-0.0893089624705424,0,1,0,0,1,0,0,3,0,1,1,0,0,0,3,0,4,1,0,2,10,0,3,1,0,6,0,8,4,6,3,0,3,14,2,8,2,4,6,3,19,15,9,3,0,3,23,6,16,10,6,9,steps,25.02708470824534,4,"[""surface""]",67.2686002903459,0,0.0,11,52.000543439308736,Киров,Кировская область,1
6726.0,5478.0,"D. 1, UL. KOMSOMOL'SKAYA  PODOLSK G   ","Комсомольская улица, 1, Подольск, городской округ Подольск, Московская область, Центральный федеральный округ, Россия",55.427882,37.550109,0.0324280054275207,0,3,0,1,0,0,0,1,0,0,1,0,0,0,4,0,2,0,1,0,1,1,3,1,0,4,0,10,2,13,0,1,2,13,3,11,2,0,10,6,64,13,36,1,5,12,45,26,23,5,1,31,service,29.501438150266008,1,"[""surface""]",45.05650889868881,0,0.0,13,61.46524242392178,Подольск,Московская область,1
7120.0,5478.0,"D. 250/1, UL. BAIKAL'SKAY IRKUTSK G   ","Байкальская улица, 250/1, Иркутск, муниципальное образование Иркутск, Иркутская область, Сибирский федеральный округ, Россия",52.254401,104.336616,-0.0503814336083039,0,0,0,0,0,0,0,0,0,2,0,0,1,0,4,2,2,0,0,0,2,0,2,0,1,3,0,6,3,4,0,0,1,3,2,3,0,1,4,3,16,4,6,0,0,2,6,7,6,0,3,4,steps,34.21828893378572,1,"[""surface""]",37.41874292005991,0,0.0,6,65.17101834278057,Иркутск,Иркутская область,1
7128.0,5478.0,"D. 250/1, UL. BAIKAL'SKAY IRKUTSK G   ","Байкальская улица, 250/1, Иркутск, муниципальное образование Иркутск, Иркутская область, Сибирский федеральный округ, Россия",52.254401,104.336616,-0.1131093703139556,0,0,0,0,0,0,0,0,0,2,0,0,1,0,4,2,2,0,0,0,2,0,2,0,1,3,0,6,3,4,0,0,1,3,2,3,0,1,4,3,16,4,6,0,0,2,6,7,6,0,3,4,steps,34.21828893378572,1,"[""surface""]",37.41874292005991,0,0.0,6,65.17101834278057,Иркутск,Иркутская область,1
7316.0,5478.0,"D. 1A, UL. KAR'ER CEMZAVO ISKITIM G   ","улица Карьер Цемзавода, 1А, Искитим, городской округ Искитим, Новосибирская область, Сибирский федеральный округ, Россия",54.654938,83.331175,-0.0675653732921216,0,0,0,0,0,0,0,0,0,0,0,0,0,0,0,0,0,0,0,0,1,0,0,0,0,0,0,0,0,0,0,0,0,1,0,0,0,0,0,0,0,0,0,0,0,0,2,0,0,0,0,0,residential,25.922684565634384,0,empty,0.0,0,0.0,0,0.0,Искитим,Новосибирская область,1
7366.0,5478.0,"D. 51, LIT. A, UL. ADMIRA ASTRAKHAN G ","улица Адмирала Нахимова, 53, Астрахань, городской округ Астрахань, Астраханская область, Южный федеральный округ, Россия",46.31929,48.004127,-0.0279583261899513,0,1,0,0,0,0,0,0,0,0,0,0,0,0,1,1,0,0,0,0,1,0,0,0,0,0,1,1,3,0,0,0,0,2,0,1,0,0,0,1,1,6,2,0,0,2,5,2,3,1,0,1,secondary,42.24971262227829,0,empty,0.0,0,0.0,4,190.05572518672997,Астрахань,Астраханская область,1
7453.0,5478.0,"D. 97, UL. OBRAZCOVSKAYA  SYZRAN G    ","Образцовская улица, 97, Сызрань, городской округ Сызрань, Самарская область, Приволжский федеральный округ, Россия",53.128289,48.430665,-0.0204327957258099,0,0,0,1,0,0,0,0,0,3,0,0,3,0,0,0,1,0,0,1,0,0,6,0,0,3,1,0,0,3,0,0,2,2,0,8,0,0,4,2,1,5,6,0,1,2,4,0,11,0,2,4,service,66.30536742403918,3,"[""surface""]",54.39209439222744,0,0.0,3,122.44205950561695,Сызрань,Самарская область,1
7685.0,5478.0,"D. 6, PL. PRIVOKZAL'NAYA  ISHIM G     ","Привокзальная площадь, 6, Ишим, городской округ Ишим, Тюменская область, Уральский федеральный округ, Россия",56.111775,69.51178,-0.1022174812506854,0,3,1,0,0,0,0,0,0,0,0,0,0,0,4,1,1,0,0,1,0,0,0,0,0,0,0,6,6,2,1,0,2,0,0,1,0,0,1,1,7,9,4,1,0,3,8,1,1,0,0,3,footway,34.69483068496069,2,"[""parking""]",48.04250049676502,0,0.0,3,94.71205134811778,городской округ Ишим,Тюменская область,1
7808.0,5478.0,"D. 31, UL. CHERNYSHEVSKOG TVER G      ","улица Чернышевского, 31, Тверь, городской округ Тверь, Тверская область, Центральный федеральный округ, Россия",56.853784,35.925829,0.0283073680571128,0,0,0,1,0,0,0,1,1,0,0,0,0,0,1,2,4,0,1,0,2,4,4,0,1,3,8,10,6,12,0,1,2,5,9,7,1,3,9,13,59,18,32,1,2,18,12,24,15,2,9,30,footway,22.89354300080052,0,empty,0.0,0,0.0,12,36.62106768580239,Тверь,Тверская область,1
7809.0,5478.0,"D. 31, UL. CHERNYSHEVSKOG TVER G      ","улица Чернышевского, 31, Тверь, городской округ Тверь, Тверская область, Центральный федеральный округ, Россия",56.853784,35.925829,0.047311055771214,0,0,0,1,0,0,0,1,1,0,0,0,0,0,1,2,4,0,1,0,2,4,4,0,1,3,8,10,6,12,0,1,2,5,9,7,1,3,9,13,59,18,32,1,2,18,12,24,15,2,9,30,footway,22.89354300080052,0,empty,0.0,0,0.0,12,36.62106768580239,Тверь,Тверская область,1
7958.0,5478.0,"D. 34/1, PR-KT LENINSKII  MOSKVA G    ","Ленинский проспект, 34/1, Москва, Москва, Центральный федеральный округ, Россия",55.707365,37.57775,0.0036103636756116,0,3,0,1,2,0,0,0,1,2,0,0,2,0,6,1,5,3,0,0,3,3,2,0,1,2,0,11,5,7,4,1,3,8,9,4,0,1,4,5,62,9,25,17,3,7,24,19,8,7,5,24,service,38.83801248035025,1,"[""street_side""]",50.25727778850906,3,455.2311866898444,18,69.26445016033858,Москва,Москва,1
8168.0,5478.0,"D. 3, LIT. A, UL. KOLLONT SANKT-PETERB","улица Коллонтай, 3, Санкт-Петербург, Санкт-Петербург, Северо-Западный федеральный округ, Россия",59.912914,30.446878,-0.0182313720628742,0,4,0,1,0,0,0,0,1,2,1,0,6,0,14,2,5,0,1,0,2,3,2,1,0,7,0,23,5,15,0,1,1,5,9,5,1,0,11,3,41,19,29,0,1,6,15,15,14,3,0,12,service,62.05972531479952,0,empty,0.0,0,0.0,15,148.147732098013,Санкт-Петербург,Санкт-Петербург,1
8276.0,5478.0,"D. 78, UL. RABOCHEGO SHTA IRKUTSK G   ","улица Рабочего Штаба, 78, Иркутск, муниципальное образование Иркутск, Иркутская область, Сибирский федеральный округ, Россия",52.316737,104.302444,-0.0360767091418662,0,0,0,0,0,0,0,0,0,0,0,0,0,0,0,0,0,0,0,0,0,0,0,0,0,0,0,2,0,0,0,0,1,0,0,1,0,1,0,1,2,0,2,0,0,3,2,2,6,0,2,0,secondary,63.08995649775782,0,empty,0.0,0,0.0,3,83.38307406981369,Иркутск,Иркутская область,1
8302.0,5478.0,"D. 1, UL. KOMSOMOL'SKAYA  PODOLSK G   ","Комсомольская улица, 1, Подольск, городской округ Подольск, Московская область, Центральный федеральный округ, Россия",55.427882,37.550109,-0.0555065016515139,0,3,0,1,0,0,0,1,0,0,1,0,0,0,4,0,2,0,1,0,1,1,3,1,0,4,0,10,2,13,0,1,2,13,3,11,2,0,10,6,64,13,36,1,5,12,45,26,23,5,1,31,service,29.501438150266008,1,"[""surface""]",45.05650889868881,0,0.0,13,61.46524242392178,Подольск,Московская область,1
3361.0,8083.0,KIROVA PR. 15A.1       Kolomna        ,"15А, подъезд 1, проспект Кирова, Коломна, городской округ Коломна, Московская область, Центральный федеральный округ, Россия",55.084101,38.766841,0.1486158106522928,0,0,1,0,0,0,0,0,0,0,0,0,0,0,2,3,5,2,0,0,4,3,5,0,0,3,0,8,6,14,2,0,2,17,9,12,1,0,7,0,29,11,33,3,1,7,31,26,35,4,1,24,service,33.554878851978266,5,"[""surface"", ""parking""]",29.48145985619176,0,0.0,14,195.4145840430053,Коломна,Московская область,1
3400.0,8083.0,Ploshchad Paveletskaya Moskva         ,"Москва, Павелецкая площадь, Москва, Центральный федеральный округ, Россия",55.730867,37.638773,0.2186083166997159,0,24,0,1,0,0,0,0,0,2,0,0,0,0,65,0,7,3,2,1,21,4,3,5,2,21,4,126,3,25,6,3,5,34,24,6,5,11,42,13,288,13,68,17,9,22,57,91,13,11,36,82,footway,12.104018364917666,0,empty,0.0,6,71.33823210636439,24,59.27440476202925,Москва,Москва,1
3522.0,8083.0,"Marshala Poluboyarova, Moskva         ","Москва, улица Маршала Полубоярова, Москва, Центральный федеральный округ, Россия",55.682534,37.861806,0.0926244630791592,0,1,1,1,0,0,0,0,2,1,0,0,0,0,2,3,4,0,0,0,0,2,5,0,0,0,0,5,11,9,0,0,1,9,22,8,2,0,0,2,48,25,56,0,1,14,27,59,32,9,2,23,footway,11.601157313023611,5,"[""parking"", ""surface""]",33.51235624142773,7,431.2766507893474,16,12.605734521531696,Москва,Москва,1
3560.0,8083.0,"SUKHOVA, 55B           Ussuriysk      ","улица Суханова, 55Б, Уссурийск, Уссурийский городской округ, Приморский край, Дальневосточный федеральный округ, Россия",43.794175,131.954907,0.1009037662425148,0,4,1,1,0,0,0,1,2,1,0,1,1,0,7,2,3,0,1,0,3,3,1,0,2,1,0,16,6,10,0,4,0,5,8,6,0,3,12,3,48,19,27,1,6,2,27,21,12,6,7,31,service,32.228546375704674,4,"[""surface"", ""parking"", ""street_side""]",25.75150618070003,0,0.0,12,118.88614216455343,Уссурийск,Приморский край,1
3756.0,8083.0,"PR. YUZHNOPORT 2,18.9  Moskva         ","2-й Южнопортовый проезд, 18с9, Москва, Москва, Центральный федеральный округ, Россия",55.702247,37.694881,0.2088899645896894,0,0,0,0,0,0,0,0,0,0,0,0,0,0,0,0,0,0,0,0,0,1,0,0,0,0,0,10,0,0,0,0,0,1,1,0,2,0,2,0,27,9,12,0,1,3,19,3,2,4,3,2,service,35.49968317077757,1,"[""surface""]",36.23300652239223,0,0.0,3,390.3133708014988,Москва,Москва,1
286.0,1942.0,88 LENINA AV.             PERM        ,"улица Ленина, 88, Пермь, городской округ Пермь, Пермский край, Приволжский федеральный округ, Россия",58.005696,56.209806,0.0048632550836535,0,1,0,1,0,0,0,1,0,2,0,0,2,0,9,2,3,0,0,2,1,0,4,0,3,3,4,25,11,12,0,2,3,7,3,15,1,4,9,8,43,22,28,0,2,12,17,8,31,6,8,15,footway,22.933354654076087,1,"[""surface""]",95.37927240006655,0,0.0,14,152.3714422854433,Пермь,Пермский край,1
199.0,1942.0,41/1 MIRA AV.             PERM        ,"улица Мира, 41/1, Пермь, городской округ Пермь, Пермский край, Приволжский федеральный округ, Россия",57.977689,56.188759,-0.0217374550885542,0,10,0,0,0,1,0,0,0,4,0,0,3,0,10,1,0,0,1,1,1,2,5,1,0,6,0,14,4,5,0,1,1,3,5,10,1,2,10,2,23,18,19,1,1,2,3,9,22,1,4,17,service,59.83888298064739,2,"[""surface"", ""parking""]",44.251425627196674,0,0.0,10,193.57017678018408,Пермь,Пермский край,1
529.0,1942.0,1 D.DONSKOGO B-R.         MOSCOW      ,"бульвар Дмитрия Донского, 1, Москва, Москва, Центральный федеральный округ, Россия",55.574879,37.580113,-0.0160932552200095,0,2,1,1,0,1,1,2,3,2,1,0,1,0,2,3,2,0,1,1,2,4,4,1,0,1,2,3,8,4,0,2,2,7,6,6,2,0,2,2,33,26,32,1,2,6,15,16,20,4,0,13,service,53.81329446656642,1,"[""surface""]",32.71082630910503,0,0.0,16,45.55968514783807,Москва,Москва,1
704.0,1942.0,12-2 ENTUZIASTOV SH       MOSCOW      ,"шоссе Энтузиастов, 12к2, Москва, Москва, Центральный федеральный округ, Россия",55.747368,37.707107,0.0373182709493908,0,10,0,4,0,1,0,1,1,2,0,0,0,0,16,0,8,1,1,1,3,3,2,0,0,6,0,27,4,12,1,1,1,10,12,4,1,1,12,6,99,16,36,5,2,6,44,43,13,8,8,21,footway,26.021170689579623,1,"[""parking""]",85.95946391523142,0,0.0,13,189.4275964486529,Москва,Москва,1
947.0,1942.0,54 LENINGRADSKIY AV.      MOSCOW      ,"Ленинградский проспект, 54/1, Москва, Москва, Центральный федеральный округ, Россия",55.797888,37.539509,0.0491646288330726,0,1,0,3,1,0,0,1,0,0,0,0,1,0,7,0,8,1,0,1,4,4,1,0,0,5,0,24,3,24,2,1,4,16,21,5,0,1,12,4,105,17,60,11,2,13,42,56,15,5,6,34,footway,35.21222877188637,0,empty,0.0,2,398.7534959438362,10,18.274199985765303,Москва,Москва,1
1123.0,1942.0,1 KOMMUNISTICHESKAY       MYTISHI     ,"Коммунистическая улица, 1, Мытищи, городской округ Мытищи, Московская область, Центральный федеральный округ, Россия",55.891809,37.748735,0.033351069321106,0,6,0,0,0,0,0,0,0,1,0,0,2,2,6,0,0,0,0,0,0,0,3,1,0,2,2,10,1,0,0,0,0,0,0,3,1,0,2,3,12,4,1,0,0,2,4,1,4,2,0,3,footway,58.55772720556783,0,empty,0.0,0,0.0,2,248.8028503264917,Мытищи,Московская область,1
1480.0,1942.0,16A DZERZHINSKOGO STR.    TOGLIATTI   ,"улица Дзержинского, 16А, Тольятти, городской округ Тольятти, Самарская область, Приволжский федеральный округ, Россия",53.532971,49.339356,-0.0005347627218996,0,0,1,1,0,0,0,2,0,2,0,0,2,0,0,1,1,0,0,1,4,0,2,0,0,2,0,4,6,5,0,0,3,10,0,7,0,0,4,2,16,16,25,1,1,7,16,1,23,0,2,9,service,45.48378436715708,2,"[""underground"", ""surface""]",31.659018059732805,0,0.0,9,117.56850144164524,городской округ Тольятти,Самарская область,1
1622.0,1942.0,188M MOSKOVSKIY AV.       S.-PETERBURG,"Московский проспект, 188, Санкт-Петербург, Санкт-Петербург, Северо-Западный федеральный округ, Россия",59.866355,30.321851,-0.0363299687964993,0,1,0,0,0,0,1,1,0,0,1,0,0,0,11,1,5,0,0,3,8,3,0,1,1,4,0,38,8,22,1,0,7,13,11,1,2,2,8,0,77,33,55,2,1,18,39,54,15,5,7,23,footway,5.627675719999485,2,"[""surface""]",77.47049703565523,1,17.005163406325938,9,50.591847544957005,Санкт-Петербург,Санкт-Петербург,1
2475.0,3185.5,"G. ELEC, UL. RADIOT       ELEC        ","Елец, Радиотехническая улица, городской округ Елец, Липецкая область, Центральный федеральный округ, Россия",52.609674,38.476254,-0.0161257431847443,0,0,1,0,0,1,0,1,0,1,0,0,0,0,0,1,3,0,1,0,2,0,2,0,0,2,0,3,4,3,2,1,0,3,1,7,0,0,2,0,5,9,8,2,1,2,3,2,14,0,0,2,tertiary,5.711333122579108,2,"[""surface""]",9.345053813836657,0,0.0,5,38.19855960963356,Елец,Липецкая область,1
2489.0,3185.5,PR.  ANDROPOVA            MOSKVA      ,"Москва, проспект Андропова, Москва, Центральный федеральный округ, Россия",55.676565,37.663063,-0.0862726725655162,0,1,0,0,1,0,1,1,0,1,0,0,2,0,18,0,8,2,0,1,8,3,6,0,0,8,0,32,4,21,2,0,5,19,9,8,0,3,16,5,68,18,41,4,0,13,38,18,16,3,5,25,footway,20.72374902284692,1,"[""surface""]",63.50004223103058,9,24.14192899002337,30,18.80302514425975,Москва,Москва,1
2662.0,3185.5,UL. KOROLEVA-9 A          BELGOROD    ,"улица Королёва, 9А, Белгород, муниципальное образование Белгород, Белгородская область, Центральный федеральный округ, Россия",50.573961,36.580593,-0.1001540492008995,0,2,0,0,0,0,0,2,0,1,0,0,2,0,3,0,0,0,0,1,3,0,3,0,0,5,0,8,7,6,0,0,1,11,1,7,3,0,10,8,28,22,19,0,0,11,28,6,25,3,1,18,service,66.66884684734659,1,"[""surface""]",58.35304200536451,0,0.0,5,177.81898675518747,Белгород,Белгородская область,1
2834.0,3185.5,"UL. KAVALERIJSKAJA,       NOVOSIBIRSK ","Новосибирск, Кавалерийская улица, городской округ Новосибирск, Новосибирская область, Сибирский федеральный округ, Россия",55.059642,82.937839,-0.0315373685453188,0,1,0,1,0,0,0,3,0,2,1,0,0,0,4,3,1,0,0,1,4,3,2,1,0,1,0,10,17,12,0,0,1,20,10,5,1,0,5,0,38,30,32,1,0,6,44,19,7,2,3,17,footway,1.7414887196529134,1,"[""parking""]",6.881116630292683,0,0.0,8,203.33664506421223,Новосибирск,Новосибирская область,1
4768.0,5478.0,"D. 87, PR-KT BELGORODSKII BELGOROD G  ","Белгородский проспект, 87, Белгород, муниципальное образование Белгород, Белгородская область, Центральный федеральный округ, Россия",50.602046,36.588444,-0.0396169846105274,0,1,0,0,0,0,0,0,0,0,1,0,0,0,13,1,8,0,0,2,6,1,2,1,2,4,6,23,4,13,0,1,4,7,4,6,1,2,17,12,59,21,27,0,3,15,18,9,12,2,6,39,footway,40.10088109722124,0,empty,0.0,0,0.0,5,92.05370382172198,Белгород,Белгородская область,1
4787.0,5478.0,"D. 33, PR-KT KOMMUNISTICH YUZHNO-SAKHA","Коммунистический проспект, 33, Западный, Ростов-на-Дону, городской округ Ростов-на-Дону, Ростовская область, Южный федеральный округ, Россия",47.207339,39.626834,-0.0993928241188003,0,1,1,1,0,0,0,1,0,1,0,0,0,0,5,3,4,0,0,0,5,2,3,1,0,1,2,10,9,15,0,1,2,10,4,7,1,0,8,4,28,25,33,0,1,10,30,28,21,3,1,13,footway,14.199206213236518,1,"[""parking""]",63.69603717191749,0,0.0,6,180.20505118683104,Ростов-на-Дону,Ростовская область,1
5277.0,5478.0,"D. 13/1, MKR. UBILEINYI   IRKUTSK G   ","микрорайон Юбилейный, 13/1, Иркутск, муниципальное образование Иркутск, Иркутская область, Сибирский федеральный округ, Россия",52.222343,104.305822,-0.1008438368451985,0,0,0,1,0,0,0,2,0,1,0,1,0,0,0,1,2,0,0,0,3,0,2,0,3,0,0,0,6,6,0,0,2,7,0,3,0,5,1,2,4,12,12,0,1,3,13,2,7,0,5,2,service,54.4350337098033,1,"[""parking""]",26.03478543093248,0,0.0,10,134.2733198802571,Иркутск,Иркутская область,1
5302.0,5478.0,"D. 113, PR-KT KOMSOMOL'SK CHELYABINSK ","Комсомольский проспект, 113, Челябинск, Челябинский городской округ, Челябинская область, Уральский федеральный округ, Россия",55.185497,61.285871,-0.0173023676168361,0,0,0,1,0,0,0,0,1,1,0,0,1,0,1,1,2,0,0,1,0,1,3,0,0,2,4,3,11,7,0,0,3,1,1,7,0,0,2,6,25,26,43,0,0,9,14,7,35,0,0,11,service,62.76619492417423,2,"[""parking"", ""surface""]",62.23093657006647,0,0.0,8,125.9574155899384,Челябинск,Челябинская область,1
5493.0,5478.0,"D. 64, SH. GUSINOBRODSKOE NOVOSIBIRSK ","Гусинобродское шоссе, 64, Новосибирск, городской округ Новосибирск, Новосибирская область, Сибирский федеральный округ, Россия",55.037314,83.016046,0.0482701588420934,0,0,0,1,0,0,0,0,0,1,0,0,0,0,0,0,2,0,0,0,3,0,2,1,0,1,1,0,6,4,0,0,1,7,1,5,1,0,1,1,5,20,15,1,1,6,23,9,11,1,0,5,service,76.67121110910712,3,"[""parking""]",70.49263212499265,0,0.0,11,98.84664102383095,Новосибирск,Новосибирская область,1
5534.0,5478.0,"D. 81, PR-KT BOGDANA HMEL BELGOROD G  ","проспект Богдана Хмельницкого, 81, Белгород, муниципальное образование Белгород, Белгородская область, Центральный федеральный округ, Россия",50.599331,36.579803,-0.0737080294325863,0,1,0,0,0,0,0,0,1,0,0,0,2,0,2,3,2,0,0,1,3,2,1,0,0,6,7,22,4,9,0,1,3,9,4,6,0,0,17,14,63,16,26,0,4,16,18,12,18,2,5,43,service,40.02903243567632,1,"[""surface""]",82.40804833113641,0,0.0,6,104.74974902571294,Белгород,Белгородская область,1
6020.0,5478.0,"D. 7, PR-KT MICHURINSKII  MOSKVA G    ","Мичуринский проспект, 7, Москва, Москва, Центральный федеральный округ, Россия",55.702729,37.509703,-0.0375022744402512,0,1,0,1,0,0,0,0,0,0,0,0,8,0,10,1,9,2,0,0,2,8,0,0,0,10,0,43,5,16,3,0,1,8,18,10,0,1,19,2,72,15,46,7,1,6,18,42,15,1,2,31,footway,32.63882596212046,4,"[""surface"", ""parking""]",15.536485774487527,2,374.57619499798506,17,52.02183052720411,Москва,Москва,1
6021.0,5478.0,"D. 7, PR-KT MICHURINSKII  MOSKVA G    ","Мичуринский проспект, 7, Москва, Москва, Центральный федеральный округ, Россия",55.702729,37.509703,-0.0186049375796189,0,1,0,1,0,0,0,0,0,0,0,0,8,0,10,1,9,2,0,0,2,8,0,0,0,10,0,43,5,16,3,0,1,8,18,10,0,1,19,2,72,15,46,7,1,6,18,42,15,1,2,31,footway,32.63882596212046,4,"[""surface"", ""parking""]",15.536485774487527,2,374.57619499798506,17,52.02183052720411,Москва,Москва,1
6363.0,5478.0,"D. 137T, PR-KT B.HMEL'NIC BELGOROD G  ","проспект Богдана Хмельницкого, 137Т, Белгород, муниципальное образование Белгород, Белгородская область, Центральный федеральный округ, Россия",50.6326,36.570891,-0.0036059329009321,0,5,0,0,0,0,0,2,0,2,0,0,1,0,5,1,0,0,0,1,3,0,3,0,0,1,2,7,4,3,0,0,3,3,0,6,0,0,3,2,15,21,9,1,0,6,10,2,13,1,2,8,service,62.08362797043013,1,"[""surface""]",95.57900022919384,0,0.0,9,110.36715528819452,Белгород,Белгородская область,1
6524.0,5478.0,"D. 11B, UL. REVOLUCIONNAY TOLYATTI G  ","Революционная улица, 11Б, Тольятти, городской округ Тольятти, Самарская область, Приволжский федеральный округ, Россия",53.527207,49.276717,-0.0058912904311292,0,0,0,0,2,0,1,0,0,0,1,0,2,0,6,0,2,2,0,2,4,0,3,1,0,5,1,10,4,4,4,0,3,4,0,7,2,0,7,9,18,24,11,4,0,5,18,5,20,4,0,12,service,36.61443088806297,3,"[""parking"", ""surface""]",58.6609692283265,0,0.0,10,52.41455526419085,городской округ Тольятти,Самарская область,1
6525.0,5478.0,"D. 11B, UL. REVOLUCIONNAY TOLYATTI G  ","Революционная улица, 11Б, Тольятти, городской округ Тольятти, Самарская область, Приволжский федеральный округ, Россия",53.527207,49.276717,-0.0268206208600044,0,0,0,0,2,0,1,0,0,0,1,0,2,0,6,0,2,2,0,2,4,0,3,1,0,5,1,10,4,4,4,0,3,4,0,7,2,0,7,9,18,24,11,4,0,5,18,5,20,4,0,12,service,36.61443088806297,3,"[""parking"", ""surface""]",58.6609692283265,0,0.0,10,52.41455526419085,городской округ Тольятти,Самарская область,1
6526.0,5478.0,"D. 11B, UL. REVOLUCIONNAY TOLYATTI G  ","Революционная улица, 11Б, Тольятти, городской округ Тольятти, Самарская область, Приволжский федеральный округ, Россия",53.527207,49.276717,-0.0095979138820691,0,0,0,0,2,0,1,0,0,0,1,0,2,0,6,0,2,2,0,2,4,0,3,1,0,5,1,10,4,4,4,0,3,4,0,7,2,0,7,9,18,24,11,4,0,5,18,5,20,4,0,12,service,36.61443088806297,3,"[""parking"", ""surface""]",58.6609692283265,0,0.0,10,52.41455526419085,городской округ Тольятти,Самарская область,1
6527.0,5478.0,"D. 11B, UL. REVOLUCIONNAY TOLYATTI G  ","Революционная улица, 11Б, Тольятти, городской округ Тольятти, Самарская область, Приволжский федеральный округ, Россия",53.527207,49.276717,-0.0019510802875299,0,0,0,0,2,0,1,0,0,0,1,0,2,0,6,0,2,2,0,2,4,0,3,1,0,5,1,10,4,4,4,0,3,4,0,7,2,0,7,9,18,24,11,4,0,5,18,5,20,4,0,12,service,36.61443088806297,3,"[""parking"", ""surface""]",58.6609692283265,0,0.0,10,52.41455526419085,городской округ Тольятти,Самарская область,1
6628.0,5478.0,"D. 29, UL. RABOCHEGO SHTA IRKUTSK G   ","улица Рабочего Штаба, 29, Иркутск, муниципальное образование Иркутск, Иркутская область, Сибирский федеральный округ, Россия",52.307118,104.296803,-0.0951045112726824,1,0,0,1,0,0,0,0,0,1,0,0,0,1,1,0,1,0,0,0,0,0,2,0,0,0,1,1,0,1,0,0,0,0,0,4,0,0,0,4,3,2,7,0,0,2,1,2,8,0,3,0,service,47.48248446764082,0,empty,0.0,0,0.0,6,104.94905459386928,Иркутск,Иркутская область,1
6629.0,5478.0,"D. 31, UL. AKADEMICHESKAY IRKUTSK G   ","Академическая улица, 31, Иркутск, муниципальное образование Иркутск, Иркутская область, Сибирский федеральный округ, Россия",52.233662,104.302382,-0.04520781953213,0,0,0,0,0,0,0,0,0,3,0,0,0,0,0,0,1,0,0,1,0,0,4,0,0,0,0,1,5,3,0,0,2,1,1,5,0,1,1,2,12,16,7,0,1,5,8,4,9,1,2,5,service,66.10162501985769,2,"[""surface"", ""parking""]",72.70455452312238,0,0.0,4,108.68276739357506,Иркутск,Иркутская область,1
7174.0,5478.0,"D. 9, UL. SHEREMET'EVSKAY RYAZAN G    ","Шереметьевская улица, 9, Рязань, городской округ Рязань, Рязанская область, Центральный федеральный округ, Россия",54.601391,39.83183,-0.0691692695573727,0,0,0,0,0,0,0,0,1,1,0,0,0,0,0,0,1,0,0,0,1,8,2,0,0,0,1,3,2,4,0,0,0,6,13,4,0,0,2,4,4,4,6,0,0,2,8,13,6,0,0,5,service,28.43238599739408,2,"[""surface""]",27.37443295108404,0,0.0,5,49.38591569130239,Рязань,Рязанская область,1
7410.0,5478.0,"D. 4, UL. BLAGOVESHENSKAY VOLOGDA G   ","Благовещенская улица, 4, Вологда, городской округ Вологда, Вологодская область, Северо-Западный федеральный округ, Россия",59.220266,39.884893,-0.0787020593531897,0,5,0,2,0,1,1,1,2,3,0,0,4,0,20,0,9,0,2,3,2,2,3,1,0,6,11,49,8,12,0,6,8,3,5,11,1,3,14,35,103,26,31,1,15,13,7,13,23,1,18,33,footway,39.277814752480126,0,empty,0.0,0,0.0,12,207.6086773242908,Вологда,Вологодская область,1
7472.0,5478.0,"D. 24, UL. KOMSOMOL'SKAYA KIROV G     ","Комсомольская улица, 24, Ленинский район, Киров, муниципальное образование Киров, Кировская область, Приволжский федеральный округ, Россия",58.582088,49.66239,0.0506578655389742,0,0,2,0,0,0,0,0,0,0,0,0,0,2,2,3,0,0,0,0,1,3,0,1,0,0,3,8,7,2,0,0,0,5,4,4,2,0,3,3,25,24,17,3,1,5,38,19,15,11,8,12,secondary,30.946146761879746,0,empty,0.0,0,0.0,9,31.89647380640975,Киров,Кировская область,1
7522.0,5478.0,"D. 82, UL. CHERNYSHEVSKOG UFA G       ","улица Чернышевского, 82, Уфа, городской округ Уфа, Республика Башкортостан, Приволжский федеральный округ, Россия",54.729335,55.941327,-0.1253406256630727,0,15,0,1,0,0,0,0,0,2,0,0,6,2,34,2,6,0,2,1,3,5,4,0,1,6,4,132,7,18,0,6,7,7,21,12,1,4,16,4,231,35,65,0,13,25,32,77,31,1,8,57,service,35.28543599759885,5,"[""street_side"", ""parking"", ""surface""]",46.60045044236594,0,0.0,18,72.78594227046337,Уфа,Башкортостан,1
7881.0,5478.0,"D. 5, UL. OKTYABR'SKOI RE TUAPSE G    ","улица Октябрьской Революции, 5, Туапсе, Туапсинский муниципальный округ, Краснодарский край, Южный федеральный округ, Россия",44.096527,39.072538,-0.0117519299323981,2,1,0,0,0,0,0,1,0,0,0,0,2,2,9,4,1,0,0,3,1,1,0,0,2,4,2,19,6,12,2,1,5,8,3,3,2,2,15,6,42,12,31,2,2,7,21,8,6,6,4,23,footway,30.80126274670054,0,empty,0.0,0,0.0,5,237.4382153369225,Туапсе,Краснодарский край,1
7899.0,5478.0,"D. 5, UL. OKTYABR'SKOI RE TUAPSE G    ","улица Октябрьской Революции, 5, Туапсе, Туапсинский муниципальный округ, Краснодарский край, Южный федеральный округ, Россия",44.096527,39.072538,-0.0552303339313898,2,1,0,0,0,0,0,1,0,0,0,0,2,2,9,4,1,0,0,3,1,1,0,0,2,4,2,19,6,12,2,1,5,8,3,3,2,2,15,6,42,12,31,2,2,7,21,8,6,6,4,23,footway,30.80126274670054,0,empty,0.0,0,0.0,5,237.4382153369225,Туапсе,Краснодарский край,1
8162.0,5478.0,"D. 2, UL. GEROEV DESANTNI NOVOROSSIYSK","улица Героев Десантников, 2, Новороссийск, городской округ Новороссийск, Краснодарский край, Южный федеральный округ, Россия",44.685377,37.781308,0.019642930538768,0,1,0,0,0,1,0,0,1,1,4,0,4,0,3,0,0,0,1,0,0,1,3,4,0,6,4,5,7,4,0,1,2,4,4,7,5,1,11,4,33,18,25,0,1,14,15,9,19,9,1,19,footway,52.19690454071495,4,"[""parking"", ""surface""]",72.71177833117561,0,0.0,13,81.48073569783037,Новороссийск,Краснодарский край,1
2981.0,8083.0,"Novocheremushkinskaya, Moskva         ","Москва, Новочерёмушкинская улица, Москва, Центральный федеральный округ, Россия",55.676138,37.574121,0.1146099604096632,0,0,0,0,0,0,0,0,0,0,0,0,0,2,9,4,2,1,0,2,1,2,1,0,0,0,2,26,10,10,2,0,6,12,9,4,1,2,1,7,70,38,40,6,2,17,51,56,14,2,5,24,footway,22.95558659481679,0,empty,0.0,0,0.0,15,60.78833176891316,Москва,Москва,1
3303.0,8083.0,"Novocheremushkinskaya, Moskva         ","Москва, Новочерёмушкинская улица, Москва, Центральный федеральный округ, Россия",55.676138,37.574121,0.1406719954580753,0,0,0,0,0,0,0,0,0,0,0,0,0,2,9,4,2,1,0,2,1,2,1,0,0,0,2,26,10,10,2,0,6,12,9,4,1,2,1,7,70,38,40,6,2,17,51,56,14,2,5,24,footway,22.95558659481679,0,empty,0.0,0,0.0,15,60.78833176891316,Москва,Москва,1
3426.0,8083.0,"PARTIZANA ZHELEZNYAKA, Krasnoyarsk    ","Красноярск, улица Партизана Железняка, городской округ Красноярск, Красноярский край, Сибирский федеральный округ, Россия",56.03265,92.921994,0.1620187162555978,0,2,0,0,0,0,0,0,0,1,0,0,2,2,5,0,2,0,0,0,1,2,2,0,1,2,2,14,3,6,0,1,1,3,2,6,0,5,4,4,37,12,14,1,1,3,8,4,13,0,8,15,footway,13.028306597048552,1,"[""surface""]",60.420379256612605,0,0.0,8,89.95533629334362,Красноярск,Красноярский край,1
3535.0,8083.0,"AVIAITSIONNAYA, 12     Komsomolsk-31  ","Авиационная улица, 12, территория Комсомольск 31, Комсомольский район, Хабаровский край, Дальневосточный федеральный округ, Россия",50.268,137.458588,0.1581726815890423,0,0,0,0,0,0,0,0,0,0,0,0,0,0,0,1,0,0,0,0,0,0,0,0,0,0,0,0,1,0,0,0,0,0,0,0,0,0,0,0,0,1,0,0,0,0,0,0,0,0,0,0,service,42.33114829976735,0,empty,0.0,0,0.0,0,0.0,сельское поселение Село Даппы,Хабаровский край,0
2906.0,496.5,J.KUDRIAVOGO 24           KHANDYGA    ,"улица Геолога Кудрявого, 24, посёлок городского типа Хандыга, муниципальное образование Хандыга, Томпонский район, Республика Саха (Якутия), Дальневосточный федеральный округ, Россия",62.647251,135.574309,-0.0341718528901593,0,0,0,0,0,0,0,0,0,0,0,0,0,0,2,0,0,0,0,0,1,0,0,0,2,0,0,3,3,4,0,1,0,3,0,1,0,3,0,1,3,4,4,0,1,3,11,0,1,0,7,1,residential,62.356118524510535,0,empty,0.0,0,0.0,7,226.1148894854996,Хандыга,Республика Саха (Якутия),1
4473.0,496.5,MOLCHANOVA 22             PARATUNKA   ,"улица Молчанова, 22, село Паратунка, Елизовский муниципальный округ, Камчатский край, Дальневосточный федеральный округ, Россия",52.952492,158.244534,-0.0235157194897907,0,0,0,0,0,0,0,0,0,0,0,1,1,0,0,0,0,0,0,0,0,0,0,0,1,1,0,0,0,0,0,0,0,0,0,0,0,1,1,0,0,2,2,0,0,1,4,0,0,0,2,1,service,47.86052057532844,1,"[""parking""]",38.71604090486615,0,0.0,0,0.0,Паратунское сельское поселение,Камчатский край,0
402.0,1942.0,33 KOMENDANTSKIY AV.      S.-PETERBURG,"Комендантский проспект, 33к7, Санкт-Петербург, Санкт-Петербург, Северо-Западный федеральный округ, Россия",60.021577,30.243877,-0.0093177076407743,0,0,0,1,0,0,0,1,0,1,2,0,1,0,2,3,11,0,0,1,2,2,3,2,0,1,0,11,8,19,0,0,2,5,5,5,2,0,9,3,35,25,39,2,0,5,25,28,21,5,0,19,footway,14.003093004151788,0,empty,0.0,0,0.0,7,33.29090191915234,Санкт-Петербург,Санкт-Петербург,1
1042.0,1942.0,78 LENINSKIY AVE          MOSCOW      ,"Ленинский проспект, 78, Москва, Москва, Центральный федеральный округ, Россия",55.682534,37.536005,0.0364303125057055,0,2,4,1,0,0,0,0,0,0,0,0,1,0,5,13,3,0,0,4,2,3,3,1,0,1,0,12,26,16,1,0,7,10,12,5,1,0,6,1,71,70,66,5,5,19,54,77,20,3,1,21,footway,29.589440681781923,0,empty,0.0,5,269.7744694599037,19,93.81346314848462,Москва,Москва,1
1053.0,1942.0,78 LENINSKIY AVE          MOSCOW      ,"Ленинский проспект, 78, Москва, Москва, Центральный федеральный округ, Россия",55.682534,37.536005,0.0585822468848662,0,2,4,1,0,0,0,0,0,0,0,0,1,0,5,13,3,0,0,4,2,3,3,1,0,1,0,12,26,16,1,0,7,10,12,5,1,0,6,1,71,70,66,5,5,19,54,77,20,3,1,21,footway,29.589440681781923,0,empty,0.0,5,269.7744694599037,19,93.81346314848462,Москва,Москва,1
1064.0,1942.0,78 LENINSKIY AVE          MOSCOW      ,"Ленинский проспект, 78, Москва, Москва, Центральный федеральный округ, Россия",55.682534,37.536005,0.0172195468898008,0,2,4,1,0,0,0,0,0,0,0,0,1,0,5,13,3,0,0,4,2,3,3,1,0,1,0,12,26,16,1,0,7,10,12,5,1,0,6,1,71,70,66,5,5,19,54,77,20,3,1,21,footway,29.589440681781923,0,empty,0.0,5,269.7744694599037,19,93.81346314848462,Москва,Москва,1
1711.0,1942.0,51 100 LET VLADIVOSTOKU A VLADIVOSTOK ,"проспект 100-летия Владивостока, 51, Владивосток, Владивостокский городской округ, Приморский край, Дальневосточный федеральный округ, Россия",43.154148,131.909551,0.034089815063216,0,1,1,2,0,0,2,0,0,0,0,0,2,0,3,2,4,0,1,5,8,1,3,1,0,7,0,8,5,17,0,1,5,23,11,6,1,0,15,1,19,19,32,0,2,9,49,22,14,1,1,25,service,19.97100369782792,8,"[""parking""]",23.8873660471951,0,0.0,8,115.60248153803124,Владивосток,Приморский край,1
1870.0,1942.0,1 TORGOVIY AVE            SARATOV     ,"Торговый проезд, 1, Саратов, муниципальное образование Саратов, Саратовская область, Приволжский федеральный округ, Россия",51.577885,45.971096,-0.0094919444989066,0,1,0,1,0,0,0,0,0,1,2,0,0,0,4,0,3,0,0,2,5,1,4,2,0,7,0,10,4,10,0,1,5,8,5,9,2,1,16,2,20,11,27,0,1,9,26,10,24,2,1,24,footway,43.26113737077087,2,"[""surface""]",46.21921870475565,0,0.0,15,156.73389408785243,Саратов,Саратовская область,1
1481.0,1942.0,52A REVOLYUTSIONNAYA STR. TOGLIATTI   ,"Революционная улица, 52А, Тольятти, городской округ Тольятти, Самарская область, Приволжский федеральный округ, Россия",53.517924,49.27192,0.0317934860937289,0,2,0,1,0,0,0,0,0,2,1,0,2,2,7,0,1,0,0,0,1,0,3,1,0,2,4,22,5,4,0,0,2,9,3,3,1,0,3,6,43,22,9,0,2,8,23,7,15,3,0,18,footway,93.8627742610706,3,"[""surface"", ""parking""]",60.391565648317616,0,0.0,12,101.19078457851845,городской округ Тольятти,Самарская область,1
1534.0,1942.0,54 LENINSKIY AV.          MOSCOW      ,"Ленинский проспект, 54, Москва, Москва, Центральный федеральный округ, Россия",55.697929,37.560395,0.0556039908440078,0,3,0,1,2,0,0,1,0,0,0,0,0,2,7,5,3,2,0,2,1,3,0,0,0,1,2,12,7,11,3,0,3,4,8,3,0,1,2,2,32,16,29,9,2,11,13,16,10,1,3,12,corridor,19.076867491154417,1,"[""surface""]",61.444955096744174,0,0.0,7,78.59573240170916,Москва,Москва,1
1589.0,1942.0,69A ZANEVSKIY AV.         S.-PETERBURG,"Заневский проспект, 69, Санкт-Петербург, Санкт-Петербург, Северо-Западный федеральный округ, Россия",59.932486,30.439216,-0.0506014782650417,0,19,0,3,0,0,0,8,1,5,11,0,23,0,30,1,3,0,1,2,9,1,7,11,1,27,0,41,2,5,0,1,2,11,6,14,12,3,38,6,48,12,7,0,1,7,16,8,16,12,3,39,footway,2.83962263616774,1,"[""multi-storey""]",87.50725981150332,5,20.408384634694368,24,55.28338889811214,Санкт-Петербург,Санкт-Петербург,1
1599.0,1942.0,69A ZANEVSKIY AV.         S.-PETERBURG,"Заневский проспект, 69, Санкт-Петербург, Санкт-Петербург, Северо-Западный федеральный округ, Россия",59.932486,30.439216,-0.0495412937678202,0,19,0,3,0,0,0,8,1,5,11,0,23,0,30,1,3,0,1,2,9,1,7,11,1,27,0,41,2,5,0,1,2,11,6,14,12,3,38,6,48,12,7,0,1,7,16,8,16,12,3,39,footway,2.83962263616774,1,"[""multi-storey""]",87.50725981150332,5,20.408384634694368,24,55.28338889811214,Санкт-Петербург,Санкт-Петербург,1
2288.0,3185.5,"14B, TRAKTOVAYA ST.       SREDNIY     ","Трактовая улица, 14, село Мезенское, муниципальный округ Заречный, Свердловская область, Уральский федеральный округ, Россия",56.75069,61.318076,-0.0199864033504878,0,0,0,0,0,0,0,0,0,0,0,0,0,0,1,0,0,0,0,0,0,0,0,0,0,0,1,1,0,0,0,0,0,0,0,0,0,0,0,1,1,1,0,0,0,0,0,0,0,0,3,0,unclassified,97.03201247137588,0,empty,0.0,0,0.0,2,326.40334559768274,Мезенское,Свердловская область,0
2561.0,3185.5,"LENINGRADSKOE SH.,        MOSKVA      ","Москва, Ленинградское шоссе, Москва, Центральный федеральный округ, Россия",55.883954,37.441961,-0.0325743338244762,0,0,0,0,0,0,0,0,0,0,0,0,0,0,2,1,0,0,0,0,4,0,1,0,0,1,0,6,3,4,0,0,0,10,3,5,0,1,2,3,45,17,26,0,3,9,33,14,14,3,3,15,trunk_link,3.580615786427177,2,"[""parking"", ""surface""]",66.85701760648183,0,0.0,4,179.2380471558683,Москва,Москва,1
4855.0,5478.0,SH. ENTUZIASTOV           MOSKVA G    ,"Москва, шоссе Энтузиастов, Москва, Центральный федеральный округ, Россия",55.761553,37.768328,-0.1450012314747548,0,0,0,0,0,0,0,0,0,0,0,0,0,0,1,0,0,0,0,0,0,0,0,0,0,2,0,2,0,2,0,0,1,1,1,1,0,1,3,0,12,13,15,0,0,6,11,5,10,0,1,12,secondary,37.03748657951102,0,empty,0.0,0,0.0,12,11.55071611161924,Москва,Москва,1
4922.0,5478.0,"D. 111, UL. KALARASH      SOCHI G     ","улица Калараша, 111, жилой район Лазаревское, Сочи, городской округ Сочи, Краснодарский край, Южный федеральный округ, Россия",43.9107,39.335996,-0.0557632672611132,0,1,1,0,1,0,0,1,0,3,0,2,7,0,7,1,4,1,0,2,8,3,5,0,7,10,2,30,4,14,2,2,7,16,3,8,2,50,19,2,86,12,25,5,6,13,46,8,17,2,140,29,service,47.83562280307331,3,"[""surface"", ""parking""]",47.83562280307331,0,0.0,12,110.90312160707526,Сочи,Краснодарский край,1
5148.0,5478.0,"D. 54, MKR. PERVOMAISKII  IRKUTSK G   ","микрорайон Первомайский, 54, Иркутск, муниципальное образование Иркутск, Иркутская область, Сибирский федеральный округ, Россия",52.254236,104.235044,-0.038706591703701,0,0,0,0,0,0,0,0,0,1,0,0,0,0,2,3,3,0,0,1,1,1,2,0,0,1,0,2,8,4,0,0,2,1,1,3,0,0,2,0,6,21,9,0,0,3,14,3,9,0,1,3,footway,27.48338188900268,1,"[""lane""]",96.86759996495606,0,0.0,7,90.08947496508932,Иркутск,Иркутская область,1
6086.0,5478.0,"D. 43, UL. 10 LET OKTYABR OMSK G      ","Омская улица, 43, Нижневартовск, городской округ Нижневартовск, Ханты-Мансийский автономный округ — Югра, Тюменская область, Уральский федеральный округ, Россия",60.931831,76.593649,-0.0531052240172293,0,0,2,0,0,0,0,0,0,1,0,0,0,0,1,2,1,0,0,0,0,3,7,0,0,8,0,7,5,9,0,0,2,4,7,15,0,0,9,3,35,14,43,0,4,7,12,42,40,2,2,49,service,20.930330429712846,7,"[""parking""]",16.678651027440953,0,0.0,9,256.99350776385995,Нижневартовск,Ханты-Мансийский автономный округ — Югра,1
6133.0,5478.0,"D. 23A, UL. KRASNOZNAMENN KRASNOZNAMEN","Краснознамённая улица, 23, Воронеж, городской округ Воронеж, Воронежская область, Центральный федеральный округ, Россия",51.651567,39.187226,0.0062920814972105,0,0,0,0,0,0,1,0,0,0,0,0,0,0,0,1,0,0,0,1,0,0,0,0,1,0,1,33,7,19,0,1,6,9,11,5,1,2,14,9,68,23,56,0,2,22,35,31,18,6,5,45,residential,69.46982032199472,0,empty,0.0,0,0.0,7,171.27415614911172,Воронеж,Воронежская область,1
6368.0,5478.0,"D. 142V, UL. RASKOL'NIKOV SARAPUL G   ","городской округ Сарапул, Сарапул, Удмуртская Республика, Приволжский федеральный округ, Россия",56.461218,53.803687,-0.0337689955622828,0,3,1,2,0,0,0,0,1,1,0,0,1,0,5,3,5,0,0,0,1,1,2,0,0,2,0,6,5,9,0,0,1,3,1,6,1,0,3,0,13,9,14,1,0,3,8,2,12,1,0,9,footway,33.85301417071395,0,empty,0.0,0,0.0,6,44.069759858785154,городской округ Сарапул,Удмуртия,1
6574.0,5478.0,"D. 36/2, PR-KT BUMAZHNIKO SYKTYVKAR G ","проспект Бумажников, 36, Сыктывкар, городской округ Сыктывкар, Республика Коми, Северо-Западный федеральный округ, Россия",61.783894,50.744357,-0.055520348555552,0,1,0,1,0,0,1,1,2,0,0,0,0,0,1,2,2,0,0,1,4,4,1,0,0,3,0,5,6,4,0,0,3,5,6,4,0,0,6,2,10,12,15,0,0,4,11,14,6,0,0,8,service,68.85733139879359,1,"[""parking""]",88.44408131741035,0,0.0,5,88.00669397202138,Сыктывкар,Республика Коми,1
6688.0,5478.0,"D. 2, B-R ENTUZIASTOV     MOSKVA G    ","бульвар Энтузиастов, 2, Москва, Москва, Центральный федеральный округ, Россия",55.746481,37.682619,-0.0011795372013534,0,5,0,0,1,0,0,2,0,0,0,1,6,4,18,1,7,1,0,2,6,3,0,2,2,8,5,32,7,19,2,1,5,13,12,2,4,3,11,19,60,17,41,2,1,10,28,26,13,7,10,25,service,31.51685109084277,1,"[""surface""]",51.57357099020447,6,42.4754757533716,29,58.02623178012924,Москва,Москва,1
6689.0,5478.0,"D. 2, B-R ENTUZIASTOV     MOSKVA G    ","бульвар Энтузиастов, 2, Москва, Москва, Центральный федеральный округ, Россия",55.746481,37.682619,-0.0148988811557191,0,5,0,0,1,0,0,2,0,0,0,1,6,4,18,1,7,1,0,2,6,3,0,2,2,8,5,32,7,19,2,1,5,13,12,2,4,3,11,19,60,17,41,2,1,10,28,26,13,7,10,25,service,31.51685109084277,1,"[""surface""]",51.57357099020447,6,42.4754757533716,29,58.02623178012924,Москва,Москва,1
6690.0,5478.0,"D. 2, B-R ENTUZIASTOV     MOSKVA G    ","бульвар Энтузиастов, 2, Москва, Москва, Центральный федеральный округ, Россия",55.746481,37.682619,0.0019512787039725,0,5,0,0,1,0,0,2,0,0,0,1,6,4,18,1,7,1,0,2,6,3,0,2,2,8,5,32,7,19,2,1,5,13,12,2,4,3,11,19,60,17,41,2,1,10,28,26,13,7,10,25,service,31.51685109084277,1,"[""surface""]",51.57357099020447,6,42.4754757533716,29,58.02623178012924,Москва,Москва,1
6691.0,5478.0,"D. 2, B-R ENTUZIASTOV     MOSKVA G    ","бульвар Энтузиастов, 2, Москва, Москва, Центральный федеральный округ, Россия",55.746481,37.682619,-0.0268805152953362,0,5,0,0,1,0,0,2,0,0,0,1,6,4,18,1,7,1,0,2,6,3,0,2,2,8,5,32,7,19,2,1,5,13,12,2,4,3,11,19,60,17,41,2,1,10,28,26,13,7,10,25,service,31.51685109084277,1,"[""surface""]",51.57357099020447,6,42.4754757533716,29,58.02623178012924,Москва,Москва,1
6704.0,5478.0,"D. 1, UL. KRASNOOKTYABR'S KALININGRAD ","Краснооктябрьская улица, 1, Калининград, городской округ Калининград, Калининградская область, Северо-Западный федеральный округ, Россия",54.702552,20.505798,-0.0618285438267256,0,4,1,0,0,0,0,0,0,1,0,0,3,0,7,4,2,0,0,1,2,1,1,0,0,8,0,17,8,6,0,0,5,7,4,5,0,0,12,7,65,14,16,2,2,15,33,10,12,6,9,30,service,14.734877683707031,1,"[""street_side""]",75.42979687135264,0,0.0,8,49.56415254128704,Калининград,Калининградская область,1
7037.0,5478.0,"D. 120, LIT. 1, NAB. OBVO SANKT-PETERB","набережная Обводного канала, 120, Санкт-Петербург, Санкт-Петербург, Северо-Западный федеральный округ, Россия",59.906932,30.298692,-0.0939187018782053,0,16,0,1,0,0,1,5,0,1,0,0,3,1,30,0,4,0,0,3,6,2,3,0,1,13,1,86,2,12,0,3,4,8,6,5,0,2,13,3,187,34,57,0,4,25,35,80,21,16,18,19,footway,19.71181830764279,4,"[""surface"", ""street_side"", ""parking""]",48.73490040000225,4,26.71198460358167,17,71.94188393961821,Санкт-Петербург,Санкт-Петербург,1
7254.0,5478.0,"D. 2, UL. KORABEL'NAYA NA VLADIVOSTOK ","Владивостокская улица, 2, Уфа, городской округ Уфа, Республика Башкортостан, Приволжский федеральный округ, Россия",54.728389,55.992585,-0.0811242236910234,0,0,0,0,0,0,0,0,0,0,0,0,0,0,0,0,0,0,0,0,1,0,0,0,0,0,0,2,2,0,0,0,1,3,1,1,0,0,0,0,18,16,26,0,0,8,29,15,10,3,1,7,service,44.37727192926938,3,"[""parking""]",5.264685512266108,0,0.0,3,319.8013128042355,Уфа,Башкортостан,1
7763.0,5478.0,"D. 25, UL. 1-YA STANCIONN ISKITIM G   ","1-я Станционная улица, 25, Искитим, городской округ Искитим, Новосибирская область, Сибирский федеральный округ, Россия",54.642608,83.295315,-0.0116414903659266,0,0,0,0,0,0,0,0,0,0,0,0,0,0,0,0,0,1,0,0,1,0,0,0,0,0,0,1,1,1,1,0,1,2,0,2,0,0,0,5,2,3,7,1,0,3,8,1,7,2,0,3,footway,37.45680431526576,1,"[""parking""]",69.8571063961907,0,0.0,0,0.0,Искитим,Новосибирская область,1
8244.0,5478.0,"D. 12A, UL. NOVOTORZHSKAY TVER G      ","Новоторжская улица, 12А, Тверь, городской округ Тверь, Тверская область, Центральный федеральный округ, Россия",56.858302,35.909857,-0.0804046515416058,0,6,0,2,0,0,0,2,0,2,0,0,3,1,30,1,6,0,1,1,10,7,3,0,3,6,3,87,6,15,1,9,9,15,18,9,0,10,18,17,127,21,33,2,12,17,25,28,15,4,14,33,service,30.67803495789008,4,"[""parking""]",26.89933677789754,0,0.0,13,60.890487394070334,городской округ Тверь,Тверская область,1
8245.0,5478.0,"D. 12A, UL. NOVOTORZHSKAY TVER G      ","Новоторжская улица, 12А, Тверь, городской округ Тверь, Тверская область, Центральный федеральный округ, Россия",56.858302,35.909857,-0.0779084304799028,0,6,0,2,0,0,0,2,0,2,0,0,3,1,30,1,6,0,1,1,10,7,3,0,3,6,3,87,6,15,1,9,9,15,18,9,0,10,18,17,127,21,33,2,12,17,25,28,15,4,14,33,service,30.67803495789008,4,"[""parking""]",26.89933677789754,0,0.0,13,60.890487394070334,городской округ Тверь,Тверская область,1
8246.0,5478.0,"D. 12A, UL. NOVOTORZHSKAY TVER G      ","Новоторжская улица, 12А, Тверь, городской округ Тверь, Тверская область, Центральный федеральный округ, Россия",56.858302,35.909857,-0.0604631627367305,0,6,0,2,0,0,0,2,0,2,0,0,3,1,30,1,6,0,1,1,10,7,3,0,3,6,3,87,6,15,1,9,9,15,18,9,0,10,18,17,127,21,33,2,12,17,25,28,15,4,14,33,service,30.67803495789008,4,"[""parking""]",26.89933677789754,0,0.0,13,60.890487394070334,городской округ Тверь,Тверская область,1
4086.0,8083.0,"N.TERNOVSKAYA, 1       Penza          ","Ново-Терновская улица, 1, село Засечное, Засечный сельсовет, Пензенский район, Пензенская область, Приволжский федеральный округ, Россия",53.132363,45.022745,0.1561782261925065,0,0,0,2,0,0,0,0,0,2,0,0,0,0,0,0,5,0,0,0,3,2,8,2,0,0,2,6,4,11,0,0,2,9,4,13,2,0,0,2,12,8,16,0,0,6,15,8,23,3,2,0,service,42.95981447643797,5,"[""parking"", ""surface"", ""street_side""]",36.13830351239108,0,0.0,6,62.24663835372644,Засечный сельсовет,Пензенская область,0
4216.0,8083.0,"MOSKOVSKIY, 171a       Sankt-Peterburg","Московский проспект, 171, Санкт-Петербург, Санкт-Петербург, Северо-Западный федеральный округ, Россия",59.86256,30.320171,0.2014918648358556,0,4,1,0,1,0,0,0,0,1,0,0,3,0,17,4,9,1,0,2,4,7,2,0,0,7,0,36,18,27,2,1,7,19,16,7,1,3,14,2,82,32,52,2,1,17,35,55,17,7,7,25,footway,26.14287403976537,0,empty,0.0,1,426.24074357607344,16,75.62210419964232,Санкт-Петербург,Санкт-Петербург,1
305.0,32.0,"PR.100LET VLADIV,88    VLADIVOSTOK    ","проспект 100-летия Владивостока, 88, Владивосток, Владивостокский городской округ, Приморский край, Дальневосточный федеральный округ, Россия",43.168792,131.915965,-0.0648287048341364,0,1,0,0,0,0,1,0,1,0,0,0,1,0,2,3,4,0,0,2,5,1,0,0,0,1,0,11,10,8,0,1,5,12,3,6,2,0,12,4,38,23,35,1,2,14,36,21,29,2,5,38,footway,14.644533773600472,5,"[""parking""]",10.578447771360787,0,0.0,11,36.01736800244268,Владивосток,Приморский край,1
399.0,1942.0,41A GRAZHDANSKIY AV.      S.-PETERBURG,"Гражданский проспект, 41, Санкт-Петербург, Санкт-Петербург, Северо-Западный федеральный округ, Россия",60.01154,30.397812,-0.0198535774633511,0,12,0,1,0,0,0,2,1,2,0,0,4,0,35,0,9,0,1,0,14,3,6,8,0,28,0,56,5,21,0,2,3,30,18,14,9,0,39,3,79,30,51,0,2,13,61,48,26,10,1,59,footway,49.04750672998262,4,"[""parking"", ""surface"", ""street_side""]",46.3758981569489,3,163.58140914761603,15,136.8846341761351,Санкт-Петербург,Санкт-Петербург,1
403.0,1942.0,305 OBUKHOVSKOY OBORONY A S.-PETERBURG,"проспект Обуховской Обороны, 305, Санкт-Петербург, Санкт-Петербург, Северо-Западный федеральный округ, Россия",59.840917,30.483979,0.0592919661043001,0,2,0,1,0,0,0,0,0,0,0,0,2,0,2,1,2,0,0,1,2,0,0,0,0,3,0,4,4,7,0,0,2,6,2,4,0,0,3,5,6,6,11,0,0,5,9,6,9,0,1,3,service,49.80772012491577,2,"[""surface""]",79.08382682643916,0,0.0,8,269.4378451594688,Санкт-Петербург,Санкт-Петербург,1
521.0,1942.0,6-1 LENINSKIY AV.         MOSCOW      ,"Ленинский проспект, 6, Москва, Москва, Центральный федеральный округ, Россия",55.727136,37.606909,0.1324164314508945,0,0,0,0,0,0,0,0,0,0,0,0,0,1,7,1,2,0,0,3,1,1,0,0,1,1,3,50,3,10,4,2,7,10,9,5,3,1,9,12,160,9,37,14,7,13,32,40,10,11,5,33,service,25.304558439329373,0,empty,0.0,4,332.66694043607265,12,192.91591642143396,Москва,Москва,1
611.0,1942.0,74 LENINGRADSKIY PR.      MOSCOW      ,"Ленинградский проспект, 74к1, Москва, Москва, Центральный федеральный округ, Россия",55.805133,37.516952,0.0554159278287075,0,9,0,5,1,0,0,7,5,1,0,0,5,2,52,2,13,4,1,5,23,18,3,1,0,16,2,84,5,23,5,1,12,37,41,5,1,1,27,7,156,19,69,10,1,19,61,85,17,8,8,46,footway,13.979666436005887,0,empty,0.0,9,20.72189015971604,29,115.19328391375193,Москва,Москва,1
612.0,1942.0,74 LENINGRADSKIY PR.      MOSCOW      ,"Ленинградский проспект, 74к1, Москва, Москва, Центральный федеральный округ, Россия",55.805133,37.516952,0.0863275965522226,0,9,0,5,1,0,0,7,5,1,0,0,5,2,52,2,13,4,1,5,23,18,3,1,0,16,2,84,5,23,5,1,12,37,41,5,1,1,27,7,156,19,69,10,1,19,61,85,17,8,8,46,footway,13.979666436005887,0,empty,0.0,9,20.72189015971604,29,115.19328391375193,Москва,Москва,1
613.0,1942.0,74 LENINGRADSKIY PR.      MOSCOW      ,"Ленинградский проспект, 74к1, Москва, Москва, Центральный федеральный округ, Россия",55.805133,37.516952,0.1012331616926125,0,9,0,5,1,0,0,7,5,1,0,0,5,2,52,2,13,4,1,5,23,18,3,1,0,16,2,84,5,23,5,1,12,37,41,5,1,1,27,7,156,19,69,10,1,19,61,85,17,8,8,46,footway,13.979666436005887,0,empty,0.0,9,20.72189015971604,29,115.19328391375193,Москва,Москва,1
614.0,1942.0,74 LENINGRADSKIY PR.      MOSCOW      ,"Ленинградский проспект, 74к1, Москва, Москва, Центральный федеральный округ, Россия",55.805133,37.516952,0.0940339255058339,0,9,0,5,1,0,0,7,5,1,0,0,5,2,52,2,13,4,1,5,23,18,3,1,0,16,2,84,5,23,5,1,12,37,41,5,1,1,27,7,156,19,69,10,1,19,61,85,17,8,8,46,footway,13.979666436005887,0,empty,0.0,9,20.72189015971604,29,115.19328391375193,Москва,Москва,1
710.0,1942.0,17 M.VASILEVSKOGO STR.    MOSCOW      ,"улица Маршала Василевского, 17, Москва, Москва, Центральный федеральный округ, Россия",55.808928,37.462326,0.0710088682002834,0,6,0,3,0,0,1,2,2,1,0,0,4,2,31,2,8,0,1,5,7,6,4,2,0,9,4,34,5,17,0,1,12,10,8,5,5,1,9,4,47,17,39,0,1,22,19,14,13,6,2,9,footway,23.97976933072193,4,"[""underground"", ""parking"", ""surface""]",24.503850452637263,5,33.64875245534395,27,51.138349033538695,Москва,Москва,1
711.0,1942.0,17 M.VASILEVSKOGO STR.    MOSCOW      ,"улица Маршала Василевского, 17, Москва, Москва, Центральный федеральный округ, Россия",55.808928,37.462326,0.0738868231224725,0,6,0,3,0,0,1,2,2,1,0,0,4,2,31,2,8,0,1,5,7,6,4,2,0,9,4,34,5,17,0,1,12,10,8,5,5,1,9,4,47,17,39,0,1,22,19,14,13,6,2,9,footway,23.97976933072193,4,"[""underground"", ""parking"", ""surface""]",24.503850452637263,5,33.64875245534395,27,51.138349033538695,Москва,Москва,1
957.0,1942.0,63 B.ORDYNKA STR.         MOSCOW      ,"улица Большая Ордынка, 63, Москва, Москва, Центральный федеральный округ, Россия",55.731886,37.624552,-0.0384964372445389,0,3,0,1,0,0,0,0,2,0,0,1,1,0,26,2,10,2,2,0,2,15,1,0,6,8,2,87,4,31,9,3,4,13,44,7,0,13,30,25,295,13,105,28,12,27,61,118,21,13,32,109,service,19.71429489317449,0,empty,0.0,3,309.0996469537025,19,133.4166745759416,Москва,Москва,1
1483.0,1942.0,137B MOSKOVSKIY AV.       S.-PETERBURG,"Московский проспект, 137, Санкт-Петербург, Санкт-Петербург, Северо-Западный федеральный округ, Россия",59.881719,30.314673,-0.0472880956402516,0,1,0,1,0,0,1,1,2,2,4,0,9,0,5,0,4,0,0,1,2,6,3,4,0,10,0,17,4,10,0,0,3,6,10,5,9,0,21,0,97,12,40,1,3,10,23,44,16,15,8,34,corridor,66.2671640719488,1,"[""surface""]",83.29681412611168,3,294.25300867000965,16,272.5664108274941,Санкт-Петербург,Санкт-Петербург,1
1787.0,1942.0,193 MOSKOVSKIY AV.        S.-PETERBURG,"Московский проспект, 193, Санкт-Петербург, Санкт-Петербург, Северо-Западный федеральный округ, Россия",59.851259,30.320476,-0.0182178382255371,0,3,0,2,0,0,2,2,1,0,0,0,4,0,15,4,8,0,0,8,10,7,0,6,1,17,0,53,10,30,0,0,11,26,26,8,6,4,31,2,93,36,59,1,1,18,50,68,22,11,8,57,footway,15.778970393086286,1,"[""surface""]",31.5038502291339,11,107.64002771126634,38,123.1578708212115,Санкт-Петербург,Санкт-Петербург,1
1788.0,1942.0,193 MOSKOVSKIY AV.        S.-PETERBURG,"Московский проспект, 193, Санкт-Петербург, Санкт-Петербург, Северо-Западный федеральный округ, Россия",59.851259,30.320476,-0.0455040428970354,0,3,0,2,0,0,2,2,1,0,0,0,4,0,15,4,8,0,0,8,10,7,0,6,1,17,0,53,10,30,0,0,11,26,26,8,6,4,31,2,93,36,59,1,1,18,50,68,22,11,8,57,footway,15.778970393086286,1,"[""surface""]",31.5038502291339,11,107.64002771126634,38,123.1578708212115,Санкт-Петербург,Санкт-Петербург,1
1819.0,1942.0,44 TOGLIATTI              NOVOKUZNETSK,"улица Тольятти, 44, Новокузнецк, Новокузнецкий городской округ, Кемеровская область — Кузбасс, Сибирский федеральный округ, Россия",53.759985,87.150596,0.0167808642240733,0,3,1,0,0,0,0,0,0,1,0,0,1,0,8,3,0,0,1,1,0,1,3,0,0,2,1,13,8,2,0,3,1,4,2,4,0,1,7,1,28,41,15,2,3,7,10,16,11,0,4,21,service,45.62267692392639,1,"[""parking""]",54.39164261891997,0,0.0,2,331.6133530885528,Новокузнецк,Кемеровская область,1
1829.0,1942.0,74A MOSKOVSKIY AV.        SANKT-PETERB,"Московский проспект, 74, Санкт-Петербург, Санкт-Петербург, Северо-Западный федеральный округ, Россия",59.906156,30.319012,-0.0045158779272198,0,4,0,3,0,0,0,1,0,1,2,0,2,0,17,2,7,0,0,0,3,8,2,2,2,5,0,45,8,24,0,0,5,15,41,6,3,2,8,4,199,28,83,0,4,26,47,127,21,21,17,27,service,15.479873141865184,1,"[""underground""]",88.02317694873469,2,67.47141457913129,13,35.086245973825136,Санкт-Петербург,Санкт-Петербург,1
1830.0,1942.0,74A MOSKOVSKIY AV.        SANKT-PETERB,"Московский проспект, 74, Санкт-Петербург, Санкт-Петербург, Северо-Западный федеральный округ, Россия",59.906156,30.319012,0.0251759279457871,0,4,0,3,0,0,0,1,0,1,2,0,2,0,17,2,7,0,0,0,3,8,2,2,2,5,0,45,8,24,0,0,5,15,41,6,3,2,8,4,199,28,83,0,4,26,47,127,21,21,17,27,service,15.479873141865184,1,"[""underground""]",88.02317694873469,2,67.47141457913129,13,35.086245973825136,Санкт-Петербург,Санкт-Петербург,1
727.0,1942.0,PL KIROVA 2               TOMSK       ,"проспект Кирова, 2, Томск, городской округ Томск, Томская область, Сибирский федеральный округ, Россия",56.466952,84.951601,-0.0181231997154677,0,1,0,2,0,0,0,0,0,0,0,0,0,0,6,2,3,0,0,2,0,2,1,0,1,3,0,61,6,7,0,3,3,2,11,2,0,3,12,8,140,38,43,0,4,11,23,37,25,0,15,37,footway,26.803175718705315,2,"[""street_side"", ""lane""]",79.00482295777509,0,0.0,9,158.1617299697512,Томск,Томская область,1
1572.0,1942.0,157 B.GORNAYA STR.        SARATOV     ,"Большая Горная улица, 157, Саратов, муниципальное образование Саратов, Саратовская область, Приволжский федеральный округ, Россия",51.539473,46.041569,-0.0640480307205822,0,2,2,0,0,0,1,0,0,1,0,0,1,0,3,4,0,0,0,1,0,1,1,0,1,1,2,5,6,2,0,0,3,2,1,2,0,2,4,8,26,24,10,0,3,10,11,6,9,0,5,18,tertiary,18.44869211337745,0,empty,0.0,0,0.0,5,62.235766823695634,Саратов,Саратовская область,1
1594.0,1942.0,108A VITEBSKIY AV.        S.-PETERBURG,"Витебский проспект, 108, Санкт-Петербург, Санкт-Петербург, Северо-Западный федеральный округ, Россия",59.82955,30.375642,-0.0628945438655027,0,1,0,0,0,0,0,3,1,0,0,0,13,0,17,1,4,1,1,2,7,7,3,1,2,22,2,34,3,8,1,1,3,10,10,6,5,2,35,2,55,15,29,1,2,10,31,27,16,6,3,57,footway,12.356412689587236,0,empty,0.0,3,16.86155115291451,15,76.40962423624467,Санкт-Петербург,Санкт-Петербург,1
1606.0,1942.0,108A VITEBSKIY AV.        S.-PETERBURG,"Витебский проспект, 108, Санкт-Петербург, Санкт-Петербург, Северо-Западный федеральный округ, Россия",59.82955,30.375642,-0.0538844635795567,0,1,0,0,0,0,0,3,1,0,0,0,13,0,17,1,4,1,1,2,7,7,3,1,2,22,2,34,3,8,1,1,3,10,10,6,5,2,35,2,55,15,29,1,2,10,31,27,16,6,3,57,footway,12.356412689587236,0,empty,0.0,3,16.86155115291451,15,76.40962423624467,Санкт-Петербург,Санкт-Петербург,1
1607.0,1942.0,108A VITEBSKIY AV.        S.-PETERBURG,"Витебский проспект, 108, Санкт-Петербург, Санкт-Петербург, Северо-Западный федеральный округ, Россия",59.82955,30.375642,-0.0726486433773611,0,1,0,0,0,0,0,3,1,0,0,0,13,0,17,1,4,1,1,2,7,7,3,1,2,22,2,34,3,8,1,1,3,10,10,6,5,2,35,2,55,15,29,1,2,10,31,27,16,6,3,57,footway,12.356412689587236,0,empty,0.0,3,16.86155115291451,15,76.40962423624467,Санкт-Петербург,Санкт-Петербург,1
1611.0,1942.0,193 MOSKOVSKIY AV.        S.-PETERBURG,"Московский проспект, 193, Санкт-Петербург, Санкт-Петербург, Северо-Западный федеральный округ, Россия",59.851259,30.320476,-0.02341095691679,0,3,0,2,0,0,2,2,1,0,0,0,4,0,15,4,8,0,0,8,10,7,0,6,1,17,0,53,10,30,0,0,11,26,26,8,6,4,31,2,93,36,59,1,1,18,50,68,22,11,8,57,footway,15.778970393086286,1,"[""surface""]",31.5038502291339,11,107.64002771126634,38,123.1578708212115,Санкт-Петербург,Санкт-Петербург,1
2546.0,3185.5,"LENINSKIJ, 101            MOSKVA      ","Ленинский проспект, 101, Москва, Москва, Центральный федеральный округ, Россия",55.666624,37.51573,-0.002501045187217,0,1,0,2,0,0,0,0,1,0,0,0,0,0,1,1,4,0,1,1,0,3,0,0,0,0,0,16,7,17,0,2,4,5,16,8,0,0,5,2,47,25,47,5,2,10,21,36,19,7,1,7,service,67.29226149317459,3,"[""parking""]",31.85857373406353,1,471.5441127089353,7,111.48307938545676,Москва,Москва,1
2761.0,3185.5,G.TJUMEN UL.RESPUBL       TJUMEN      ,"Тюмень, улица Республики, городской округ Тюмень, Тюменская область, Уральский федеральный округ, Россия",57.12691,65.591245,-0.0952825058832558,0,0,0,0,0,0,0,0,0,0,0,0,0,0,2,0,1,0,0,0,0,0,1,0,0,0,0,3,6,5,1,1,2,2,3,3,0,0,0,0,11,19,15,1,1,11,13,4,10,4,1,6,secondary_link,16.831079940105344,1,"[""parking""]",46.74147205755192,0,0.0,7,286.04283543145704,Тюмень,Тюменская область,1
4740.0,5478.0,"D. 108, PR-KT KOMSOMOL'SK CHELYABINSK ","Комсомольский проспект, 108, Челябинск, Челябинский городской округ, Челябинская область, Уральский федеральный округ, Россия",55.189712,61.290147,-0.0474776219025369,0,1,1,2,0,0,0,0,0,1,0,0,2,0,2,5,5,0,0,1,1,0,2,0,0,2,0,7,9,17,1,0,5,2,0,9,0,0,4,4,37,23,48,2,1,9,14,7,37,0,1,13,service,36.63805302626916,5,"[""surface"", ""street_side""]",27.7553018497028,0,0.0,8,155.91520976744263,Челябинск,Челябинская область,1
4782.0,5478.0,"D. 35V, UL. GEROEV STALIN YOSHKAR-OLA ","городской округ Йошкар-Ола, Йошкар-Ола, Республика Марий Эл, Приволжский федеральный округ, Россия",56.6316,47.886178,-0.0582568870656895,0,0,0,0,0,0,0,0,0,0,0,0,0,2,5,2,8,0,0,1,3,2,5,1,0,6,4,16,16,16,0,2,4,13,4,11,1,1,16,9,87,31,37,0,6,18,38,14,27,1,2,32,footway,42.23748796781797,3,"[""surface"", ""parking""]",67.3534881260268,0,0.0,12,259.1232803541466,Йошкар-Ола,Марий Эл,1
4921.0,5478.0,UL. KRASNYI PROSPEKT      NOVOSIBIRSK ,"Новосибирск, Красный проспект, городской округ Новосибирск, Новосибирская область, Сибирский федеральный округ, Россия",55.062906,82.91177,-0.0592366742744187,0,5,0,2,0,0,1,0,1,0,0,0,0,0,9,1,4,0,1,1,0,1,0,0,0,0,0,42,4,19,0,1,4,19,9,1,0,0,21,0,77,33,44,0,3,14,47,44,10,3,3,31,footway,30.58728247561084,4,"[""surface"", ""parking""]",32.173930382415044,5,269.1519521593753,14,16.087761889749054,Новосибирск,Новосибирская область,1
4947.0,5478.0,UL. KIROVA                NOVOSIBIRSK ,"Новосибирск, улица Кирова, городской округ Новосибирск, Новосибирская область, Сибирский федеральный округ, Россия",55.008201,82.964761,0.0037170403602671,0,0,0,1,0,0,0,0,0,1,0,0,0,0,0,1,1,0,0,0,0,0,1,0,0,0,0,4,7,3,0,0,2,3,2,3,0,0,2,0,17,16,10,0,0,10,18,7,6,0,2,11,service,10.578772799369355,3,"[""surface"", ""street_side""]",21.311721874353136,0,0.0,4,41.44541007945852,Новосибирск,Новосибирская область,1
5194.0,5478.0,"D. 17, UL. 10 LET OKTYABR IZHEVSK G   ","улица 10 лет Октября, 17, Ижевск, городской округ Ижевск, Удмуртская Республика, Приволжский федеральный округ, Россия",56.872491,53.215227,-0.0384914438885946,0,0,0,1,0,0,0,0,0,2,0,0,0,0,1,7,2,0,0,0,2,0,2,0,0,0,0,7,11,17,0,0,2,10,0,6,0,2,4,0,31,17,34,0,2,5,22,5,32,2,8,17,service,25.979517026973515,5,"[""parking""]",58.67272016576317,0,0.0,11,74.5422263887283,Ижевск,Удмуртия,1
5267.0,5478.0,"D. 22, UL. 10 KRASNOARMEI SANKT-PETERB","10-я Красноармейская улица, 22, Санкт-Петербург, Санкт-Петербург, Северо-Западный федеральный округ, Россия",59.912021,30.295126,-0.0941798915324213,0,0,0,0,0,0,0,0,1,0,1,0,0,0,18,7,3,0,0,1,4,3,2,2,3,1,1,42,18,12,0,1,6,12,15,6,8,9,6,5,200,47,52,0,6,32,39,56,26,29,29,26,service,13.5212736871047,2,"[""surface""]",31.15103784136124,0,0.0,17,131.13060019431617,Санкт-Петербург,Санкт-Петербург,1
5464.0,5478.0,"D. 30, UL. BOL'SHAYA MORS SANKT-PETERB","Большая Морская улица, 30, Санкт-Петербург, Санкт-Петербург, Северо-Западный федеральный округ, Россия",59.933622,30.312967,-0.0803376986215882,0,16,1,1,0,0,0,0,2,1,2,10,0,0,56,5,4,1,1,3,3,6,3,5,29,3,2,173,14,12,1,3,11,11,29,7,24,66,15,11,639,39,63,7,22,33,88,145,26,72,180,98,service,20.893209282572727,0,empty,0.0,4,284.1046027965053,20,81.40686616574068,Санкт-Петербург,Санкт-Петербург,1
5549.0,5478.0,"D. 65, UL. VLASIHINSKAYA  BARNAUL G   ","Власихинская улица, 65, Барнаул, городской округ Барнаул, Алтайский край, Сибирский федеральный округ, Россия",53.326218,83.690501,-0.0217627981625335,0,3,0,0,0,0,0,0,1,2,0,0,0,0,4,0,1,0,0,0,0,1,3,0,0,0,0,6,1,5,0,0,2,3,1,5,0,0,0,1,23,6,15,0,0,5,5,10,13,0,2,4,service,92.0095214706204,1,"[""surface""]",82.16227929033664,0,0.0,11,95.24016281714104,Барнаул,Алтайский край,1
6100.0,5478.0,"D. 9, UL. OKTYABR'SKOI RE SMOLENSK G  ","улица Октябрьской Революции, 9к1, Смоленск, муниципальное образование Смоленск, Смоленская область, Центральный федеральный округ, Россия",54.77494,32.044568,-0.0514526351030878,0,2,1,2,0,0,0,0,0,1,0,0,2,0,17,4,9,0,0,3,6,5,2,0,0,7,0,39,11,22,0,3,6,11,15,11,1,1,16,2,94,31,52,0,13,26,38,35,25,3,6,34,service,85.2675242059569,0,empty,0.0,0,0.0,9,124.39970193861174,городской округ Смоленск,Смоленская область,1
6663.0,5478.0,"D. 2, UL. KRASNAYA        GURYEVSK G  ","Красная улица, 2, Гурьевск, Гурьевский муниципальный округ, Калининградская область, Северо-Западный федеральный округ, Россия",54.770972,20.606706,-0.0545190775179176,0,0,0,0,0,0,0,0,1,1,0,0,0,0,0,3,1,0,0,0,0,1,1,0,0,0,1,2,3,3,0,0,5,0,1,1,1,0,2,1,6,4,4,0,0,6,0,1,4,1,0,2,service,28.4543268207048,1,"[""parking""]",83.45805825535642,0,0.0,7,238.9481085646028,Гурьевск,Калининградская область,1
7136.0,5478.0,"D. 60, PR-KT NAHODKINSKII NAKHODKA G  ","Находкинский проспект, 60, Находка, Находкинский городской округ, Приморский край, Дальневосточный федеральный округ, Россия",42.797674,132.873021,-0.0637309011551673,0,2,0,1,0,0,1,0,0,3,0,0,1,0,2,1,1,0,0,1,1,0,3,0,0,2,0,2,5,3,0,0,1,4,1,4,0,0,2,0,8,12,3,0,0,3,10,5,5,0,2,2,service,46.34868523942941,2,"[""multi-storey"", ""parking""]",33.06913994403486,0,0.0,3,48.18413897305025,Находка,Приморский край,1
7267.0,5478.0,"D. 27A, UL. ELEKTROVOZNAY VORONEZH G  ","Электровозная улица, 27А, Воронеж, городской округ Воронеж, Воронежская область, Центральный федеральный округ, Россия",51.736904,39.291035,-0.0272856079292455,0,4,1,1,0,0,0,20,3,1,0,0,1,2,6,1,4,0,0,0,28,4,1,0,0,2,2,6,1,4,0,0,0,30,4,1,0,0,2,4,7,2,7,0,0,0,34,5,2,0,0,2,service,26.42182630650831,2,"[""parking""]",25.480501039372907,0,0.0,8,54.71855068604149,Воронеж,Воронежская область,1
7598.0,5478.0,UL. ANTONOVA              PENZA G     ,"Пенза, улица Антонова, городской округ Пенза, Пензенская область, Приволжский федеральный округ, Россия",53.183943,45.060339,0.017077165224954,0,0,2,0,0,0,0,0,0,0,0,0,0,0,0,6,2,0,0,0,1,0,1,1,0,1,2,4,7,11,0,0,2,6,1,6,3,1,1,2,6,11,12,0,0,3,11,3,13,3,1,3,service,23.0285733834791,0,empty,0.0,0,0.0,6,108.76628627406537,Пенза,Пензенская область,1
8026.0,5478.0,"D. 9, UL. OKTYABR'SKOI RE SMOLENSK G  ","улица Октябрьской Революции, 9к1, Смоленск, муниципальное образование Смоленск, Смоленская область, Центральный федеральный округ, Россия",54.77494,32.044568,-0.0114124047987123,0,2,1,2,0,0,0,0,0,1,0,0,2,0,17,4,9,0,0,3,6,5,2,0,0,7,0,39,11,22,0,3,6,11,15,11,1,1,16,2,94,31,52,0,13,26,38,35,25,3,6,34,service,85.2675242059569,0,empty,0.0,0,0.0,9,124.39970193861174,городской округ Смоленск,Смоленская область,1
8091.0,5478.0,"D. 9, UL. SADOVAYA-KUDRIN MOSKVA G    ","Садовая-Кудринская улица, 9с1, Москва, Москва, Центральный федеральный округ, Россия",55.762054,37.586077,-0.1450012314747548,0,4,0,0,0,0,1,0,0,0,0,2,2,0,21,0,3,0,2,3,6,2,0,4,2,8,2,86,1,17,7,5,6,17,26,2,5,7,18,12,264,12,100,25,24,20,49,132,7,7,35,54,service,40.52169579132156,2,"[""surface"", ""street_side""]",44.67080819726899,3,317.94160656100405,18,98.425521438334,Москва,Москва,1
8262.0,5478.0,"D. 25, KORP. 3, UL. 70 LE OMSK G      ","улица 70 лет Октября, 25к3, Омск, городской округ Омск, Омская область, Сибирский федеральный округ, Россия",54.976111,73.324805,0.0014597644176056,0,0,0,1,0,0,0,0,0,2,0,1,0,0,5,0,1,0,1,0,1,0,3,0,1,6,0,8,0,1,0,1,0,1,0,4,2,1,12,0,32,7,17,0,1,3,24,27,19,4,1,34,footway,80.56873605950997,2,"[""surface""]",73.49915471234952,0,0.0,5,317.10966569783454,Омск,Омская область,1
3794.0,8083.0,Universitetskiy 105    Volgograd      ,"Университетский проспект, 105, Волгоград, городской округ Волгоград, Волгоградская область, Южный федеральный округ, Россия",48.641452,44.433899,0.1026885302310055,0,1,0,3,0,0,0,0,0,1,0,0,0,0,2,0,3,0,0,0,0,0,2,0,0,0,0,4,0,4,0,0,0,1,1,3,0,0,0,0,37,4,11,1,0,2,16,3,7,1,0,4,service,68.33813773831245,1,"[""surface""]",71.76099133059633,0,0.0,6,153.7568358375863,Волгоград,Волгоградская область,1
4209.0,8083.0,"KSK 5 MKR, 29          CHita          ","5-й микрорайон, 29, посёлок Текстильщиков, Чита, городской округ Чита, Забайкальский край, Дальневосточный федеральный округ, Россия",52.071123,113.394302,0.1512497725885101,0,0,1,1,0,0,0,0,0,1,0,0,0,0,0,2,2,0,0,0,1,0,2,0,0,1,0,3,3,5,0,0,1,2,0,7,0,0,2,1,6,6,5,0,1,1,6,0,12,0,0,7,service,90.03587864557846,0,empty,0.0,0,0.0,7,88.19823536422548,Чита,Забайкальский край,1
4354.0,8083.0,"MOZHAYSKOE SH.,80A     Odintsovo      ","Можайское шоссе, 80А, Одинцово, Одинцовский городской округ, Московская область, Центральный федеральный округ, Россия",55.683808,37.297548,0.141763127034502,0,0,0,2,0,0,0,0,0,1,0,0,3,0,1,2,6,0,0,1,1,3,3,0,0,5,1,10,8,11,0,0,2,6,11,7,0,0,11,1,27,15,27,0,1,3,17,19,19,1,0,17,service,32.53298591709733,0,empty,0.0,0,0.0,9,57.24365869368851,Одинцово,Московская область,1
8526.0,32.0,"EMELYANOVA,34          Y-SAKHALINSK   ","улица А.О. Емельянова, 34, Южно-Сахалинск, Сахалинская область, Россия",46.940995,142.738319,0.0114998209182048,0,0,1,2,0,0,0,5,0,3,1,0,0,0,0,2,3,0,0,0,10,0,3,1,0,0,0,1,5,6,0,0,0,18,2,7,1,1,0,2,15,25,15,0,0,4,47,5,18,3,6,13,footway,30.07750346050988,2,"[""parking""]",24.5315252976838,0,0.0,10,128.15491027121493,Южно-Сахалинск,Сахалинская область,1
8532.0,32.0,"KOMSOMOLSKAYA,259B     Y.SAKHALINSK   ","Комсомольская улица, 259, Южно-Сахалинск, Сахалинская область, Россия",46.937353,142.753348,0.0297102650350859,0,0,1,1,0,0,1,0,0,4,0,0,2,1,6,3,2,0,0,1,2,0,4,0,0,2,1,8,8,4,0,0,1,14,1,7,0,1,3,1,16,19,17,0,0,8,43,5,23,0,5,15,service,14.935285802677685,3,"[""multi-storey"", ""parking""]",66.60870434307941,0,0.0,10,88.47577281691957,Южно-Сахалинск,Сахалинская область,1
8533.0,32.0,"KOMMUN. PR., 32        YUZHNO SAKHAL  ","Коммунистический проспект, Южно-Сахалинск, Сахалинская область, Россия",46.959413,142.741113,0.0095399608832554,0,0,0,0,0,1,1,1,0,0,0,0,1,0,4,0,1,0,2,3,1,1,0,0,1,4,0,12,4,4,0,3,4,13,1,3,0,4,9,2,53,10,24,0,5,15,69,13,15,0,11,29,footway,19.43686459963243,0,empty,0.0,0,0.0,8,119.3171964233161,Южно-Сахалинск,Сахалинская область,1
8684.0,32.0,"LENINGRADSKIY PR.,76A  MOSCOW         ","Ленинградский проспект, 76А, Москва, Россия, 125315",55.805827,37.515146,-0.0940346244764994,0,11,0,3,0,0,2,11,6,2,0,0,5,2,30,2,14,3,1,4,27,22,4,1,0,13,2,87,5,26,5,1,10,35,37,7,2,0,32,7,139,18,61,8,1,18,55,82,16,7,7,43,footway,21.180805681701766,2,"[""underground"", ""surface""]",38.5655263574001,9,30.799862842403563,30,47.41864765204611,Москва,Москва,1
37.0,32.0,"GVARDEYSKAYA PL., 2    NORILSK        ","Гвардейская площадь, 2, Норильск, Красноярский край, Россия, 663302",69.343541,88.211228,0.0792773520096629,0,1,0,0,0,0,0,0,0,2,0,0,1,0,4,2,3,0,1,1,6,1,2,0,0,1,4,8,13,7,0,1,4,15,3,3,0,1,4,6,18,27,16,0,4,8,48,8,12,0,2,15,footway,32.02201225093797,2,"[""surface"", ""parking""]",33.19922872947163,0,0.0,12,53.46603002487455,Норильск,Красноярский край,1
313.0,32.0,"RUSSKAYA, 16           VLADIVOSTOK    ","Русская улица, 16, Владивосток, Приморский край, Россия, 690039",43.16586,131.908212,-0.1450012314747548,0,3,0,2,0,0,0,1,0,5,0,0,1,0,7,1,5,0,0,1,3,2,8,0,1,3,2,20,5,8,1,1,4,7,7,14,1,5,8,2,32,13,22,1,1,11,24,14,21,1,6,19,service,55.77726407773052,10,"[""parking""]",33.38836171015551,0,0.0,10,27.786317792784224,Владивосток,Приморский край,1
335.0,32.0,"SHUKHOVA, 14           MOSCOW         ","улица Шухова, 14, Москва, Россия, 115162",55.716859,37.613063,-0.0246822352357643,0,4,1,0,0,0,0,0,1,0,0,0,0,0,5,2,1,0,0,1,1,4,0,0,1,1,0,25,6,15,2,0,4,12,21,4,4,3,10,37,123,22,57,9,2,15,46,96,25,12,7,51,footway,19.01670860518905,2,"[""surface""]",26.387151824447816,2,373.857375529377,11,291.5296658289994,Москва,Москва,1
358.0,32.0,"ADMIRALA FOKINA, 25    VLADIVOSTOK    ","улица Адмирала Фокина, 25, Владивосток, Приморский край, Россия, 690091",43.117174,131.885503,-0.1334258834962322,0,10,0,1,0,0,0,0,1,1,0,0,4,0,46,1,5,0,3,1,6,13,10,1,6,19,3,151,9,15,2,4,9,20,36,15,2,25,56,12,251,20,37,4,11,22,42,63,25,4,41,88,service,17.08128053980316,21,"[""parking""]",7.446763211249832,0,0.0,11,74.66780113059302,Владивосток,Приморский край,1
2895.0,32.0,Zhivopisnaia 136       d.Velednikov   ,"деревня Веледниково, городской округ Истра, Московская область, Россия",55.799765,37.116016,0.1414693533331615,0,0,0,0,0,0,0,0,0,0,0,0,0,0,0,0,0,0,0,0,1,0,0,0,0,0,0,0,0,0,0,0,0,1,0,0,0,0,0,2,0,0,0,0,0,0,1,0,0,0,0,0,service,44.46541333987615,0,empty,0.0,0,0.0,0,0.0,Веледниково,Московская область,0
1975.0,496.5,BEKESHSKAYA 39            PENZA       ,"Бекешская улица, 39, Пенза, Россия, 440018",53.20322,44.978826,0.0172589332663376,0,0,0,1,0,0,0,0,0,0,0,0,1,2,0,0,5,0,0,1,3,3,1,0,0,1,3,1,3,7,0,0,2,5,5,1,0,0,1,3,12,15,20,0,0,3,23,14,9,0,1,7,footway,31.38775059036493,3,"[""parking""]",21.81839430573079,0,0.0,8,109.44609993111808,городской округ Пенза,Пензенская область,1
1977.0,496.5,B.MOSKOVSKAYA 90A         VLADIMIR    ,"Большая Московская улица, 90А, Владимир, Россия, 600000",56.132925,40.419184,-0.0139490047116537,1,3,0,1,0,0,1,1,2,1,0,1,1,3,15,0,4,0,0,3,3,5,2,0,3,3,15,22,4,4,2,1,3,9,7,2,1,5,8,22,37,13,21,2,2,11,18,19,7,1,8,14,service,6.551155388374371,1,"[""parking""]",96.152855024228,0,0.0,11,51.01575133055585,Владимир,Владимирская область,1
1992.0,496.5,GORKOGO 20                TAMBOV      ,"улица Максима Горького, 20, Тамбов, Россия",52.718497,41.454511,-0.0484357394087966,0,0,0,0,0,0,0,1,0,1,0,0,2,0,2,0,1,0,0,0,1,0,2,0,1,7,7,21,3,3,1,2,2,1,3,4,0,1,15,12,83,10,37,2,5,10,28,15,26,2,3,30,footway,41.42711882753925,3,"[""surface"", ""multi-storey""]",49.07573072758031,0,0.0,10,70.59809993472845,Тамбов,Тамбовская область,1
1998.0,496.5,KURASHOVA 28/1            YAKUTSK     ,"улица Курашова, 28/1, Якутск, Республика Саха (Якутия), Россия, 677000",62.033259,129.736382,-0.0642932974491817,0,0,0,0,0,0,1,0,0,1,0,0,0,0,3,2,1,0,2,1,3,0,1,0,1,0,3,13,5,5,0,4,4,19,1,11,2,5,10,5,48,21,16,0,8,12,45,8,31,8,9,23,service,23.620293084780208,1,"[""parking""]",39.866375420966975,0,0.0,17,144.82889647604506,Якутск,Республика Саха (Якутия),1
2006.0,496.5,LENINA 32                 MUROM       ,"улица Ленина, 32, Муром, Владимирская область, Россия, 602267",55.577108,42.05437,-0.1001214289644553,0,1,0,0,0,1,0,1,0,3,1,0,0,0,16,2,3,1,1,1,3,3,5,2,1,2,6,32,8,12,1,2,7,7,14,9,2,2,6,40,43,17,20,1,3,11,23,26,17,2,8,13,service,36.98472987563172,3,"[""parking""]",59.0260754835242,0,0.0,5,15.132779592524606,Муром,Владимирская область,1
2011.0,496.5,BOROVSKAYA 5              BALABANOVO  ,"Боровская улица, 5, Балабаново, Боровский район, Калужская область, Россия, 249000",55.180598,36.655611,-0.0008294956654186,0,1,0,0,0,0,0,0,0,1,0,0,2,0,1,1,4,0,0,0,0,0,4,0,0,3,1,3,2,9,2,0,5,2,2,8,2,0,6,4,7,10,16,2,0,7,6,6,14,2,1,9,service,22.25186996161522,0,empty,0.0,0,0.0,12,50.9961380079086,Балабаново,Калужская область,1
2012.0,496.5,SOVETSKAYA 21             ZHUKOV      ,"Советская улица, 21, Жуков, Калужская область, Россия, 249191",55.027991,36.750518,-0.0476678404207127,0,0,0,0,0,0,2,0,0,0,0,0,2,0,1,0,1,0,0,3,1,0,0,0,0,2,1,1,3,1,0,0,7,1,1,1,1,1,3,2,2,4,3,1,0,7,5,1,2,1,1,3,residential,58.12250040145032,0,empty,0.0,0,0.0,2,104.6990258087528,Жуков,Калужская область,1
2017.0,496.5,DORZHIEVA 24A             MUKHORSHIBIR,"улица Доржиева, 24А, село Мухоршибирь, Республика Бурятия, Россия",51.048934,107.822322,0.017372643984509,0,0,0,0,0,0,1,0,0,0,0,0,0,0,0,0,0,0,0,1,1,0,1,1,0,0,0,0,0,0,0,0,1,3,0,1,1,0,0,1,1,0,0,0,0,1,4,0,1,1,0,0,residential,83.3262997007352,0,empty,0.0,0,0.0,1,415.4863594172377,Мухоршибирь,Республика Бурятия,1
2022.0,496.5,SADOVAYA 27B              KRIVODANOVKA,"Садовая улица, 27, село Криводановка, Новосибирский район, Новосибирская область, Россия",55.086363,82.64683,-0.0276573657875183,0,0,0,1,0,0,1,0,0,0,0,0,0,0,2,1,2,0,0,2,6,0,0,0,0,0,2,2,2,3,0,0,3,9,0,0,0,0,1,2,2,2,4,0,0,3,12,0,0,0,0,1,service,46.237668530330055,0,empty,0.0,0,0.0,2,138.85745489965308,Криводановка,Новосибирская область,1
2023.0,496.5,SOVETSKAYA 19             KUGESI      ,"Советская улица, 19, поселок городского типа Кугеси, Чебоксарский район, Чувашская Республика, Россия, 429500",56.029642,47.294593,-0.0778711918613832,2,1,0,0,0,0,0,0,0,0,0,1,2,2,1,1,0,0,0,3,1,0,0,0,1,2,2,1,1,0,0,0,4,2,0,2,0,1,3,2,9,5,5,1,0,8,9,2,8,2,2,3,service,19.91301417570655,4,"[""parking""]",37.19289275572822,0,0.0,2,136.2291305024146,Кугеси,Чувашия,1
2027.0,496.5,MELNIKOVA 106             CHERLAK     ,"улица Мельникова, 106, посёлок городского типа Черлак, Черлакский район, Омская область, Россия, 646250",54.151887,74.79789,-0.0506266855287384,0,0,0,0,0,0,0,0,0,1,0,0,0,0,0,0,2,0,0,2,0,0,2,0,0,2,0,0,0,2,0,0,3,0,0,4,0,0,2,0,0,1,3,0,0,3,1,0,4,0,0,3,secondary,168.676001069899,0,empty,0.0,0,0.0,0,0.0,Черлак,Омская область,1
2033.0,496.5,POBEDY 67/2               PETROPAVLOVS,"проспект Победы, 67/2, Петропавловск-Камчатский, Камчатский край, Россия, 683902",53.070803,158.58752,0.0190607428520956,0,5,0,0,0,0,0,0,0,2,0,0,2,0,14,0,0,0,2,0,1,0,4,0,0,4,0,18,1,4,1,2,1,5,1,11,0,1,4,0,20,4,5,1,3,2,12,2,11,0,1,7,service,70.99821097344075,1,"[""surface""]",41.21640108711861,0,0.0,4,306.6779732605286,Петропавловск-Камчатский,Камчатский край,1
2034.0,496.5,POLEVAYA 4                MEDVEDEVO   ,"Полевая улица, 4, посёлок городского типа Медведево, Медведевский район, Республика Марий Эл, Россия, 425200",56.63759,47.803974,-0.0274751961229577,0,0,1,0,0,0,0,2,0,0,0,0,2,0,0,3,0,0,0,0,5,1,0,0,0,3,0,5,10,2,0,0,3,10,3,5,0,0,5,4,8,19,13,0,0,9,16,4,9,0,0,14,footway,19.14437650478653,0,empty,0.0,0,0.0,5,143.56223605086487,Медведево,Марий Эл,1
2035.0,496.5,UPITA 5A                  KIROV       ,"улица Андрея Упита, 5А, Киров, Россия, 610050",58.605564,49.591163,-0.1013755908540726,0,0,0,1,0,0,0,3,0,0,1,0,1,0,1,2,3,0,0,1,3,0,4,1,0,1,0,2,4,7,0,1,2,6,1,5,4,0,3,0,5,14,15,0,1,4,11,1,11,11,0,8,footway,19.59302149497773,0,empty,0.0,0,0.0,13,73.02959302317025,Киров,Кировская область,1
2850.0,496.5,VOSTOCHNAYA 42/7          ORENBURG    ,"Восточная улица, 42/7, Оренбург, Россия, 460021",51.784175,55.153504,-0.086529509128304,0,0,0,1,0,0,0,1,1,2,0,1,1,0,1,0,3,0,0,1,2,2,6,0,1,3,0,1,7,8,0,0,2,3,5,8,0,1,3,4,13,15,13,0,0,7,9,9,14,0,1,4,residential,42.64501519416288,0,empty,0.0,0,0.0,8,44.23382707407591,Оренбург,Оренбургская область,1
2873.0,496.5,AMURSKAYA 13              CHITA       ,"Амурская улица, 13, Чита, Забайкальский край, Россия, 672039",52.023722,113.513428,-0.0732875290072723,0,0,1,1,0,0,0,0,0,0,0,0,1,1,1,2,2,0,0,0,1,1,0,0,1,1,3,2,4,2,0,0,2,5,1,1,0,1,5,3,20,10,22,0,5,5,21,2,14,0,3,19,service,28.049821177866065,1,"[""parking""]",45.66038526190891,0,0.0,6,64.16269627893818,Чита,Забайкальский край,1
2876.0,496.5,VOROVSKOGO 43             KIROV       ,"улица Воровского, 43, Киров, Россия",58.594438,49.666657,-0.1105973682659273,0,9,0,8,0,0,0,3,10,1,1,0,6,1,11,3,11,0,0,0,3,18,5,2,0,11,1,21,10,31,0,1,5,11,28,6,3,1,15,3,79,55,65,0,9,26,118,60,31,16,9,38,steps,22.78796098517338,10,"[""surface"", ""parking""]",19.37140759682003,0,0.0,7,53.173294718363685,Киров,Кировская область,1
2877.0,496.5,LENINA 3                  PRISTEN     ,"улица Ленина, 3, посёлок городского типа Пристень, Пристенский район, Курская область, Россия, 306200",51.235052,36.694293,-0.0787939986779948,0,0,0,0,0,0,0,3,0,0,0,0,1,3,1,1,1,0,0,1,8,0,2,0,1,1,3,1,5,2,0,0,3,8,0,4,0,1,1,3,1,5,3,0,0,3,8,0,4,0,1,1,residential,42.586373329087465,0,empty,0.0,0,0.0,0,0.0,городское поселение Пристень,Курская область,1
2897.0,496.5,KARLA MARKSA 76/1         KURGAN      ,"улица Карла Маркса, 76/1, Курган, Россия",55.442245,65.35418,-0.0261465882319446,0,0,0,0,0,0,0,0,0,1,0,0,1,0,1,3,0,0,0,2,0,0,1,0,0,1,0,9,10,5,0,0,4,2,0,9,1,1,4,6,30,29,9,0,2,13,10,0,15,2,7,11,service,57.32142366427311,1,"[""parking""]",29.633761191394605,0,0.0,13,287.563336710674,Курган,Курганская область,1
2900.0,496.5,KALACHINSKAYA 25          KALACHINSK  ,"Калачинская улица, 25, Калачинск, Омская область, Россия, 646900",55.047817,74.588663,0.0182088275363533,0,0,0,0,0,0,0,0,0,0,0,0,0,0,1,0,0,0,0,1,0,0,0,0,0,0,0,1,0,1,0,1,2,3,0,0,0,0,0,2,2,7,5,1,1,6,7,0,11,1,0,3,footway,25.110227630555684,0,empty,0.0,0,0.0,1,62.113197003237815,Калачинск,Омская область,1
2914.0,496.5,ZAVOYKO 7                 ELIZOVO     ,"улица Завойко, 7, Елизово, Камчатский край, Россия, 684000",53.1871,158.383863,0.0613509276698259,0,3,1,1,0,0,1,1,0,2,0,0,1,2,6,1,8,0,0,3,5,3,2,1,0,4,2,14,3,11,1,0,8,12,4,7,1,2,5,2,17,11,19,1,0,14,24,5,11,1,3,6,secondary,60.439871057004126,2,"[""surface"", ""parking""]",87.72979060902665,0,0.0,11,92.0545613196803,Елизово,Камчатский край,1
2923.0,496.5,19-LINIYA 10              IVANOVO     ,"19-я линия, 10, Иваново, Россия, 153031",56.989885,40.932023,-0.0447300215074948,0,0,1,0,0,0,1,0,0,2,0,0,0,0,0,1,1,0,0,1,2,0,2,0,1,0,0,0,5,2,0,0,3,4,0,3,0,1,0,0,0,7,6,0,0,4,6,1,4,0,1,0,service,39.40972157681519,0,empty,0.0,0,0.0,0,0.0,Иваново,Ивановская область,1
2951.0,496.5,DEYNEKI 19                KURSK       ,"улица Дейнеки, 19, микрорайон КЗТЗ, Курск, Россия, 305047",51.704063,36.142449,-0.0632106189153011,0,0,0,2,0,0,1,2,1,1,0,0,5,0,5,2,3,0,0,1,4,2,4,2,0,6,2,5,11,5,0,0,2,10,7,5,2,0,6,2,17,22,27,1,1,5,34,13,16,3,8,15,service,4.455411825943233,1,"[""parking""]",91.35786251754416,0,0.0,12,142.24045641548582,городской округ Курск,Курская область,1
2973.0,496.5,KRASNIY PUT' 9            KRUTINKA    ,"улица Красный Путь, 9, посёлок городского типа Крутинка, Крутинский район, Омская область, Россия, 646130",56.011686,71.508439,-0.0560772655674922,0,0,0,0,0,0,0,0,0,1,0,0,0,0,0,0,0,0,0,0,1,0,1,0,0,0,2,0,0,1,0,1,0,1,0,1,0,0,0,2,1,1,3,1,1,2,1,1,1,0,0,1,tertiary,88.07278388901165,0,empty,0.0,0,0.0,0,0.0,Крутинка,Омская область,1
